ID,Station,USCRN_Y_N,Lat,Lon,Elev-m,BI,Built_1975_50km_percent,Built_2020_50km_percent,Percentage_Change_50km,Built_1975_10km_percent,Built_2020_10km_percent,Percentage_Change_10km,Built_1975_2km_percent,Built_2020_2km_percent,Percentage_Change_2km,USCRN_Station
ACW00011604,SAVE,N,57.7667,11.8667,18.0,45.0,1.34,2.16,61.19,2.43,4.37,79.84,0.9,1.65,83.33,
AE000041196,SHARJAH_INTER_AIRP,N,25.333,55.517,34.0,39.0,2.2,6.34,188.18,0.66,9.47,1334.85,0.53,1.61,203.77,
AEM00041184,RAS_AL_KHAIMAH_INTE,N,25.617,55.933,31.0,17.0,0.55,1.81,229.09,0.28,1.39,396.43,0.4,1.34,235.0,
AEM00041194,DUBAI_INTL,N,25.255,55.364,10.4,104.0,2.5,7.77,210.8,13.72,23.86,73.91,2.24,12.09,439.73,
AEM00041216,ABU_DHABI_BATEEN_AIR,N,24.43,54.47,3.0,114.0,0.76,3.63,377.63,2.05,6.83,233.17,0.82,9.83,1098.78,
AEM00041217,ABU_DHABI_INTL,N,24.433,54.651,26.8,39.0,0.49,3.62,638.78,0.17,3.87,2176.47,0.35,4.39,1154.29,
AEM00041218,AL_AIN_INTL,N,24.262,55.609,264.9,27.0,1.31,3.24,147.33,0.33,2.79,745.45,0.59,3.27,454.24,
AF000040930,NORTH_SALANG,N,35.317,69.017,3366.0,0.0,0.0,0.03,0.0,0.0,0.0,0.0,0.06,0.09,50.0,
AFM00040911,MAZAR_I_SHARIF,N,36.7,67.2,378.0,0.0,0.43,1.48,244.19,0.73,5.7,680.82,0.19,3.36,1668.42,
AFM00040938,HERAT,N,34.21,62.228,977.2,0.0,0.6,0.98,63.33,1.15,2.61,126.96,3.37,8.98,166.47,
AFM00040948,KABUL_INTL,N,34.566,69.212,1791.3,0.0,1.64,2.99,82.32,10.0,15.71,57.1,8.55,14.6,70.76,
AFM00040990,KANDAHAR_AIRPORT,N,31.5,65.85,1010.0,0.0,0.37,0.78,110.81,2.43,3.64,49.79,11.41,17.83,56.27,
AFXLT299877,CHAKHCHARAN,N,34.5,65.3,2230.0,0.0,0.02,0.02,0.0,0.29,0.42,44.83,0.02,0.02,0.0,
AG000060390,ALGER_DAR_EL_BEIDA,N,36.7167,3.25,24.0,25.0,2.88,6.22,115.97,6.82,15.85,132.4,2.78,8.29,198.2,
AG000060590,EL_GOLEA,N,30.5667,2.8667,397.0,12.0,0.12,0.23,91.67,2.39,4.94,106.69,2.04,3.96,94.12,
AG000060611,IN_AMENAS,N,28.05,9.6331,561.0,15.0,0.06,0.07,16.67,0.25,0.31,24.0,0.99,1.19,20.2,
AG000060680,TAMANRASSET,N,22.8,5.4331,1362.0,0.0,0.07,0.28,300.0,0.05,0.18,260.0,0.11,0.15,36.36,
AGE00135039,ORAN_HOPITAL_MILITAIRE,N,35.7297,-0.65,50.0,24.0,0.91,2.1,130.77,5.62,6.98,24.2,0.0,0.0,0.0,
AGE00147704,ANNABA_CAP_DE_GARDE,N,36.97,7.79,161.0,9.0,0.67,1.23,83.58,0.39,0.91,133.33,0.3,0.53,76.67,
AGE00147705,ALGIERS_VILLE_UNIVERSITE,N,36.78,3.07,59.0,61.0,2.86,6.26,118.88,9.64,13.62,41.29,8.94,11.72,31.1,
AGE00147706,ALGIERS_BOUZAREAH,N,36.8,3.03,344.0,42.0,2.62,5.77,120.23,8.21,13.4,63.22,11.17,19.23,72.16,
AGE00147707,ALGIERS_CAP_CAXINE,N,36.8,3.04,38.0,41.0,2.65,5.84,120.38,7.71,12.37,60.44,15.68,22.51,43.56,
AGE00147708,TIZI_OUZOU,N,36.72,4.05,222.0,27.0,1.6,3.27,104.38,3.68,8.27,124.73,16.86,25.15,49.17,
AGE00147709,FORT_NATIONAL,N,36.63,4.2,942.0,8.0,1.57,3.11,98.09,1.68,3.02,79.76,4.22,6.43,52.37,
AGE00147710,BEJAIA_BOUGIE_PORT,N,36.75,5.1,9.0,25.0,0.55,1.16,110.91,3.15,5.65,79.37,0.67,1.42,111.94,
AGE00147711,CONSTANTINE,N,36.3697,6.62,660.0,36.0,0.75,1.92,156.0,6.56,13.09,99.54,13.68,19.73,44.23,
AGE00147712,ORLEANSVILLE_CHLEF,N,36.17,1.34,112.0,30.0,1.07,2.12,98.13,5.96,11.3,89.6,16.74,25.63,53.11,
AGE00147713,SETIF,N,36.18,5.4,1081.0,27.0,0.89,2.18,144.94,4.63,13.48,191.14,15.93,29.93,87.88,
AGE00147714,ORAN_CAP_FALCON,N,35.77,0.8,78.0,0.0,0.53,1.07,101.89,1.06,2.04,92.45,2.18,3.4,55.96,
AGE00147715,TEBESSA,N,35.42,8.1197,863.0,31.0,0.39,0.8,105.13,4.05,8.55,111.11,21.02,31.08,47.86,
AGE00147716,NEMOURS_GHAZAOUET,N,35.1,-1.85,83.0,18.0,0.3,0.6,100.0,1.52,3.03,99.34,10.4,16.47,58.37,
AGE00147718,BISKRA,N,34.85,5.72,125.0,38.0,0.42,0.92,119.05,4.79,10.43,117.75,30.31,39.84,31.44,
AGE00147719,LAGHOUAT,N,33.7997,2.89,767.0,19.0,0.23,0.5,117.39,3.7,7.7,108.11,9.37,13.11,39.91,
AGE00147720,GERYVILLE_EL_BAYADH,N,33.68,1.0,1320.0,18.0,0.11,0.21,90.91,1.8,3.59,99.44,3.66,5.98,63.39,
AGM00060351,JIJEL,N,36.795,5.874,11.0,11.0,0.63,1.3,106.35,3.75,7.95,112.0,3.27,6.24,90.83,
AGM00060353,JIJEL_PORT,N,36.817,5.883,6.0,17.0,0.6,1.24,106.67,2.81,5.85,108.19,6.56,12.11,84.6,
AGM00060355,SKIKDA,N,36.933,6.95,7.0,49.0,0.45,0.86,91.11,0.07,0.12,71.43,0.0,0.0,0.0,
AGM00060360,ANNABA,N,36.822,7.809,4.9,14.0,0.84,1.64,95.24,1.15,2.42,110.43,1.45,2.88,98.62,
AGM00060367,EL_KALA,N,36.9,8.45,13.0,8.0,0.21,0.55,161.9,0.48,1.84,283.33,3.7,9.54,157.84,
AGM00060369,ALGER_PORT,N,36.767,3.1,12.0,28.0,2.99,6.63,121.74,10.28,13.25,28.89,0.0,0.0,0.0,
AGM00060387,DELLYS,N,36.917,3.95,8.0,0.0,0.83,1.79,115.66,0.64,1.61,151.56,0.0,0.0,0.0,
AGM00060402,SOUMMAM,N,36.712,5.07,6.1,13.0,0.64,1.32,106.25,3.92,7.87,100.77,1.99,5.94,198.49,
AGM00060403,GUELMA,N,36.467,7.467,228.0,26.0,0.43,0.97,125.58,2.48,6.32,154.84,6.29,11.22,78.38,
AGM00060405,BOUCHEGOUF,N,36.5,7.717,111.0,0.0,0.47,1.03,119.15,0.6,1.56,160.0,1.65,3.03,83.64,
AGM00060410,TENES,N,36.5,1.333,18.0,12.0,0.35,0.71,102.86,1.37,2.65,93.43,0.03,0.05,66.67,
AGM00060415,AIN_BESSAM,N,36.317,3.533,748.0,0.0,0.65,1.25,92.31,0.66,1.2,81.82,0.48,0.84,75.0,
AGM00060417,BOUIRA,N,36.383,3.883,560.0,21.0,1.0,1.99,99.0,2.17,5.45,151.15,5.89,28.44,382.85,
AGM00060419,MOHAMED_BOUDIAF_INTL,N,36.276,6.62,690.4,0.0,0.81,2.09,158.02,1.15,7.38,541.74,0.74,1.65,122.97,
AGM00060421,OUM_EL_BOUAGHI,N,35.867,7.117,891.0,22.0,0.32,0.74,131.25,1.74,4.44,155.17,14.78,33.58,127.2,
AGM00060423,SOUK_AHRAS,N,36.283,7.967,680.0,26.0,0.43,0.94,118.6,2.06,5.42,163.11,12.66,24.04,89.89,
AGM00060425,ECH_CHELIFF,N,36.213,1.332,141.1,10.0,1.12,2.22,98.21,2.25,4.28,90.22,1.24,2.8,125.81,
AGM00060430,MILIANA,N,36.3,2.233,721.0,11.0,0.67,1.3,94.03,2.31,4.7,103.46,8.31,15.56,87.24,
AGM00060437,MEDEA,N,36.283,2.733,1036.0,21.0,0.85,1.61,89.41,2.76,6.15,122.83,4.08,10.71,162.5,
AGM00060444,BORDJ_BOU_ARRERIDJ,N,36.067,4.767,930.0,29.0,0.58,1.43,146.55,3.17,9.45,198.11,21.58,33.64,55.89,
AGM00060445,SETIF_AIN_ARNAT,N,36.178,5.324,1050.0,9.0,0.87,2.09,140.23,1.07,3.63,239.25,3.6,8.53,136.94,
AGM00060452,ARZEW,N,35.817,-0.267,4.0,188.0,0.42,1.15,173.81,2.7,6.29,132.96,9.37,14.52,54.96,
AGM00060457,MOSTAGANEM,N,35.883,0.117,138.0,10.0,1.04,2.02,94.23,3.85,8.41,118.44,0.69,1.28,85.51,
AGM00060461,ORAN_PORT,N,35.7,-0.65,22.0,57.0,0.93,2.14,130.11,9.52,13.16,38.24,23.93,27.54,15.09,
AGM00060467,M'SILA,N,35.667,4.5,442.0,9.0,0.3,0.77,156.67,2.3,4.66,102.61,0.45,1.16,157.78,
AGM00060468,BATNA,N,35.55,6.183,1052.0,38.0,0.51,1.13,121.57,6.04,11.63,92.55,24.96,29.95,19.99,
AGM00060475,CHEIKH_LARBI_TEBESSI,N,35.432,8.121,811.1,25.0,0.4,0.81,102.5,3.96,8.11,104.8,1.47,4.4,199.32,
AGM00060476,KHENCHELLA,N,35.467,7.083,987.0,11.0,0.3,0.72,140.0,0.81,2.15,165.43,2.92,11.49,293.49,
AGM00060490,ES_SENIA,N,35.624,-0.621,89.9,14.0,0.98,2.25,129.59,3.97,9.44,137.78,0.66,2.12,221.21,
AGM00060506,MASCARA_MATEMORE,N,35.6,0.3,476.0,0.0,1.01,2.01,99.01,0.57,1.14,100.0,0.88,1.45,64.77,
AGM00060507,GHRISS,N,35.208,0.147,513.9,0.0,0.51,1.11,117.65,1.07,2.13,99.07,0.45,0.87,93.33,
AGM00060511,BOU_CHEKIF,N,35.341,1.463,989.1,0.0,0.38,0.87,128.95,0.46,1.0,117.39,0.37,0.78,110.81,
AGM00060514,KSAR_CHELLALA,N,35.167,2.317,801.0,0.0,0.08,0.17,112.5,0.25,0.54,116.0,0.01,0.01,0.0,
AGM00060515,BOU_SAADA,N,35.333,4.206,459.0,0.0,0.18,0.46,155.56,0.52,1.19,128.85,0.12,0.26,116.67,
AGM00060518,BENI_SAF,N,35.3,-1.35,70.0,10.0,0.26,0.64,146.15,1.25,2.71,116.8,1.5,8.07,438.0,
AGM00060520,SIDI_BEL_ABBES,N,35.2,-0.617,476.0,32.0,0.39,0.85,117.95,4.4,8.59,95.23,21.99,29.2,32.79,
AGM00060522,MAGHNIA,N,34.82,-1.77,426.0,0.0,0.75,1.44,92.0,2.14,4.49,109.81,0.62,0.98,58.06,
AGM00060531,ZENATA,N,35.017,-1.45,248.1,7.0,0.52,1.18,126.92,0.82,1.98,141.46,0.93,2.85,206.45,
AGM00060535,DJELFA_TLETSI,N,34.683,3.25,1144.0,32.0,0.24,0.58,141.67,3.25,8.62,165.23,17.81,25.41,42.67,
AGM00060536,SAIDA,N,34.867,0.15,752.0,20.0,0.3,0.6,100.0,2.68,5.49,104.85,7.32,16.15,120.63,
AGM00060540,EL_KHEITER,N,34.15,0.067,1001.0,0.0,0.03,0.07,133.33,0.23,0.53,130.43,3.85,10.55,174.03,
AGM00060549,MECHERIA,N,33.536,-0.242,1175.0,16.0,0.07,0.16,128.57,1.37,3.2,133.58,0.12,0.22,83.33,
AGM00060550,EL_BAYADH,N,33.667,1.0,1347.0,16.0,0.11,0.21,90.91,1.82,3.64,100.0,0.86,2.16,151.16,
AGM00060555,SIDI_MAHDI,N,33.068,6.089,85.0,6.0,0.2,0.52,160.0,2.02,4.74,134.65,0.35,0.7,100.0,
AGM00060557,NAAMA,N,33.267,-0.3,1166.0,17.0,0.02,0.06,200.0,0.26,1.05,303.85,0.95,5.28,455.79,
AGM00060559,GUEMAR,N,33.511,6.777,61.9,11.0,0.55,1.41,156.36,2.16,4.36,101.85,1.51,3.05,101.99,
AGM00060560,AIN_SEFRA,N,32.767,-0.6,1059.0,26.0,0.05,0.14,180.0,0.91,2.76,203.3,2.36,8.88,276.27,
AGM00060563,HASSIR'MEL,N,32.933,3.283,764.0,38.0,0.06,0.15,150.0,1.0,2.4,140.0,3.15,8.86,181.27,
AGM00060566,NOUMERAT,N,32.384,3.794,460.9,8.0,0.28,0.62,121.43,0.57,1.19,108.77,0.55,1.71,210.91,
AGM00060571,BECHAR,N,31.646,-2.27,811.1,9.0,0.22,0.5,127.27,1.15,2.48,115.65,0.0,0.0,0.0,
AGM00060580,OUARGLA,N,31.917,5.413,150.0,14.0,0.41,0.73,78.05,1.22,2.17,77.87,0.12,0.44,266.67,
AGM00060581,OUED_IRARA,N,31.673,6.14,141.1,34.0,0.17,0.44,158.82,0.5,1.68,236.0,1.78,4.63,160.11,
AGM00060602,BENI_ABBES,N,30.133,-2.167,505.0,10.0,0.02,0.05,150.0,0.38,0.95,150.0,8.01,20.23,152.56,
AGM00060603,RHOURD_NOUSS,N,29.717,6.7,252.0,82.0,0.01,0.03,200.0,0.17,0.62,264.71,0.01,0.01,0.0,
AGM00060607,TIMIMOUN,N,29.237,0.276,313.0,0.0,0.08,0.15,87.5,0.82,1.69,106.1,0.15,0.33,120.0,
AGM00060620,TOUAT_CHEIKH_SIDI_MOHAMED_BEL,N,27.838,-0.186,280.1,0.0,0.18,0.42,133.33,0.03,0.05,66.67,0.15,0.43,186.67,
AGM00060630,IN_SALAH,N,27.233,2.5,269.0,14.0,0.08,0.12,50.0,1.27,1.86,46.46,0.0,0.0,0.0,
AGM00060640,ILLIZI_TAKHAMALT,N,26.724,8.623,541.9,0.0,0.03,0.05,66.67,0.04,0.06,50.0,0.4,0.77,92.5,
AGM00060656,TINDOUF,N,27.7,-8.167,442.9,0.0,0.13,0.31,138.46,0.79,2.54,221.52,0.63,1.23,95.24,
AGM00060670,TISKA,N,24.293,9.452,968.0,0.0,0.02,0.03,50.0,0.01,0.01,0.0,0.0,0.0,0.0,
AGM00060686,BORDJ_BADJ_MOKHTAR,N,21.333,0.95,399.0,8.0,0.0,0.07,0.0,0.03,1.46,4766.67,0.06,16.87,28016.67,
AGM00060690,IN_GUEZZAM,N,19.567,5.767,401.0,8.0,0.01,0.03,200.0,0.28,0.82,192.86,1.93,10.73,455.96,
AGXLT074658,ADRAR,N,27.88,-0.28,263.0,30.0,0.18,0.41,127.78,3.21,7.72,140.5,10.78,29.81,176.53,
AGXLT104989,TOUGGOURT,N,33.12,6.13,85.0,18.0,0.21,0.54,157.14,0.84,1.95,132.14,0.1,0.67,570.0,
AGXLT146043,HASSI_MESSOUD,N,31.7,2.9,398.0,0.0,0.0,0.0,0.0,0.0,0.0,0.0,0.0,0.0,0.0,
AGXLT191914,MASCARA_GRISS_ALGERIA,N,35.3,0.2,511.0,0.0,0.58,1.26,117.24,0.98,1.9,93.88,1.54,3.68,138.96,
AGXLT199075,SKIKDA,N,36.5,6.5,9999.0,0.0,0.83,1.93,132.53,0.38,0.76,100.0,0.62,1.31,111.29,
AGXLT247289,BATNA,N,35.75,6.3167,826.0,0.0,0.49,1.0,104.08,0.28,0.54,92.86,0.12,0.49,308.33,
AGXLT305380,EL_OUED,N,33.5,6.12,63.0,0.0,0.08,0.2,150.0,0.0,0.0,0.0,0.0,0.0,0.0,
AGXLT391176,BENI_SAF_ALGERIA,N,35.3,1.4,68.0,0.0,0.39,0.88,125.64,0.26,0.69,165.38,0.7,2.79,298.57,
AGXLT477883,GHARDAIA,N,32.4,3.8,520.0,8.0,0.28,0.63,125.0,0.49,1.03,110.2,0.0,0.01,0.0,
AGXLT544396,AYATA,N,33.5,3.7,41.0,0.0,0.01,0.03,200.0,0.0,0.0,0.0,0.0,0.0,0.0,
AGXLT602246,DJANET,N,24.55,9.47,1054.0,13.0,0.04,0.06,50.0,0.74,0.98,32.43,0.19,0.23,21.05,
AGXLT750989,AOULEF_ALGERIA,N,27.0,1.1,290.0,0.0,0.06,0.09,50.0,1.15,1.81,57.39,0.07,0.11,57.14,
AGXLT818652,GHAZAOUETAL,N,35.1,1.9,83.0,0.0,0.04,0.06,50.0,0.01,0.01,0.0,0.0,0.0,0.0,
AGXLT830065,TLEMCEN,N,34.8,-1.3,9999.0,0.0,0.43,0.98,127.91,0.06,0.12,100.0,0.0,0.0,0.0,
AGXLT898158,ILLIZI,N,26.5,8.42,544.0,0.0,0.04,0.06,50.0,0.13,0.18,38.46,0.0,0.0,0.0,
AGXLT952400,TOUGGOURT,N,33.4,3.8,69.0,0.0,0.01,0.03,200.0,0.0,0.0,0.0,0.0,0.0,0.0,
AGXLT990706,BEJAIA,N,36.8,5.0,22.0,0.0,0.51,1.07,109.8,0.59,1.75,196.61,0.36,0.82,127.78,
AJ000037575,ZAKATALA,N,41.55,46.667,490.0,0.0,0.46,0.96,108.7,0.55,1.38,150.91,0.76,1.49,96.05,
AJ000037661,SHAKI,N,41.217,47.167,641.0,13.0,0.33,0.77,133.33,2.94,6.81,131.63,7.53,16.92,124.7,
AJ000037675,GUBA,N,41.367,48.517,552.0,13.0,0.44,1.12,154.55,1.72,4.85,181.98,10.32,21.65,109.79,
AJ000037735,GANCA,N,40.7167,46.4167,311.0,8.0,0.99,2.24,126.26,5.35,9.97,86.36,4.56,13.8,202.63,
AJ000037747,EVLAKH_AIRPORT,N,40.617,47.15,15.0,11.0,0.61,1.44,136.07,2.17,3.78,74.19,19.43,30.25,55.69,
AJ000037749,GOYCHAY,N,40.65,47.75,95.0,7.0,0.62,1.19,91.94,2.42,4.87,101.24,18.48,31.61,71.05,
AJ000037756,MARAZA,N,40.533,48.933,755.0,0.0,0.2,0.35,75.0,0.63,1.29,104.76,5.04,13.9,175.79,
AJ000037860,MASHTAGA,N,40.533,50.0,28.0,18.0,3.59,7.92,120.61,7.21,19.16,165.74,31.16,37.45,20.19,
AJ000037907,FIZULY,N,39.6,47.15,439.0,0.0,0.06,0.18,200.0,0.01,0.02,100.0,0.1,0.13,30.0,
AJ000037936,NAXCIVAN,N,39.2,45.417,885.0,12.0,0.39,0.58,48.72,4.42,6.64,50.23,16.43,26.42,60.8,
AJ000037985,LANKARAN,N,38.75,48.817,-12.0,9.0,0.46,1.03,123.91,3.56,7.9,121.91,2.32,6.51,180.6,
AJ000037989,ASTARA,N,38.5,48.9,-22.0,0.0,0.26,0.76,192.31,0.98,1.96,100.0,0.0,0.0,0.0,
AJXLT263100,BAKU,N,40.4,49.8,0.0,30.0,3.79,7.95,109.76,14.79,24.1,62.95,19.05,34.57,81.47,
ALE00100939,TIRANA,N,41.3331,19.7831,89.0,20.0,0.85,2.47,190.59,5.36,17.88,233.58,4.77,30.43,537.95,
ALE00108905,SHKODRA,N,42.1,19.5331,43.0,11.0,0.4,0.88,120.0,3.23,6.31,95.36,3.09,7.59,145.63,
ALM00013610,KUKES,N,42.0333,20.4167,354.0,0.0,0.15,0.36,140.0,0.59,1.19,101.69,0.46,0.96,108.7,
ALM00013615,TIRANA_RINAS,N,41.415,19.721,38.4,8.0,0.88,2.62,197.73,1.66,6.6,297.59,1.29,5.33,313.18,
ALM00013622,VLORE,N,40.4667,19.4833,1.0,16.0,0.38,0.74,94.74,2.62,5.19,98.09,23.37,32.38,38.55,
ALM00013625,GJIROKASTER,N,40.0833,20.15,193.0,9.0,0.2,0.44,120.0,0.98,2.62,167.35,4.78,11.36,137.66,
ALM00013629,KORCA,N,40.6,20.7667,889.0,0.0,0.24,0.46,91.67,1.72,3.02,75.58,1.14,2.56,124.56,
AM000037682,AMASIA,N,40.783,43.833,1866.0,13.0,0.59,0.85,44.07,5.98,8.25,37.96,16.08,20.97,30.41,
AM000037686,GUMRI,N,40.78,43.83,1523.0,13.0,0.59,0.85,44.07,6.0,8.13,35.5,10.38,14.72,41.81,
AM000037781,ARAGAC_VISOKOGORNAYA,N,40.5,44.2,3223.0,0.0,0.35,0.58,65.71,0.01,0.01,0.0,0.0,0.0,0.0,
AM000037789,YEREVAN,N,40.2,44.5,1113.0,32.0,2.6,4.19,61.15,16.6,22.99,38.49,31.95,37.11,16.15,
AM000037801,GAVAR,N,40.35,45.1331,1961.0,11.0,0.33,0.55,66.67,3.11,4.47,43.73,14.27,20.03,40.36,
AMM00037717,SEVAN_OZERO,N,40.567,45.0,1917.0,0.0,0.36,0.55,52.78,0.84,1.24,47.62,0.79,1.36,72.15,
AO000066160,LUANDA,N,-8.85,13.233,74.0,32.0,7.23,11.62,60.72,39.72,41.86,5.39,25.33,27.61,9.0,
AO000066270,WAKU_KUNGU_CELA,N,-11.417,15.117,1304.0,0.0,0.07,0.51,628.57,0.19,1.77,831.58,0.8,5.06,532.5,
AO000066390,LUBANGO_SA_DA_BAND,N,-14.933,13.567,1761.0,0.0,0.67,1.98,195.52,3.14,9.5,202.55,2.29,12.02,424.89,
AO000066410,MENONGUE_SERPA_PIN,N,-14.65,17.683,1343.0,0.0,0.2,0.59,195.0,4.62,12.71,175.11,20.26,30.29,49.51,
AO000066422,MOCAMEDES,N,-15.2,12.15,45.0,12.0,0.24,0.41,70.83,5.32,7.91,48.68,22.32,26.46,18.55,
AO000066447,MAVINGA,N,-15.833,20.35,1088.0,0.0,0.0,0.03,0.0,0.05,0.56,1020.0,0.0,0.0,0.0,
AOM00066140,UIGECARMONA,N,-7.58,15.0,824.0,0.0,0.16,0.66,312.5,0.4,4.35,987.5,0.01,0.01,0.0,
AOM00066152,DUNDO,N,-7.4,20.82,776.0,0.0,0.13,0.4,207.69,2.77,7.88,184.48,14.01,27.51,96.36,
AOM00066215,MALANJE,N,-9.55,16.37,1139.0,0.0,0.53,0.83,56.6,10.65,14.0,31.46,31.36,34.28,9.31,
AOM00066226,SAURIMO,N,-9.67,20.38,1096.0,0.0,0.34,0.63,85.29,7.94,12.6,58.69,33.2,35.65,7.38,
AOM00066285,LUENA_LUSO,N,-11.7833,19.9267,1329.0,0.0,0.23,0.8,247.83,5.07,14.27,181.46,19.08,24.11,26.36,
AOM00066318,HUAMBONOVA_LISBOA,N,-12.8,15.75,1701.0,0.0,0.81,1.77,118.52,10.4,18.02,73.27,8.86,23.54,165.69,
AOM00066325,SILVA_PORTOBIE_KUITO,N,-12.38,16.95,1711.0,0.0,0.4,1.01,152.5,6.97,14.03,101.29,21.91,31.68,44.59,
AOXLT237217,HENRIQUE_DE_CARVALHO,N,-9.7,20.4,1080.0,0.0,0.34,0.63,85.29,6.03,10.27,70.32,0.55,9.74,1670.91,
AOXLT400864,SA_DA_BANDEIRA,N,-14.9,13.6,1758.0,0.0,0.65,1.88,189.23,0.73,3.44,371.23,0.26,1.42,446.15,
AOXLT442550,LOBITO,N,-12.33,13.55,3.0,11.0,0.46,0.95,106.52,3.83,5.81,51.7,0.33,0.9,172.73,
AOXLT606864,SA_DA_BANDEIRA,N,-14.92,13.48,1786.0,16.0,0.66,1.94,193.94,9.99,16.42,64.36,20.91,35.54,69.97,
AOXLT714994,PEREIRA_DECA,N,-17.1,15.7,1150.0,0.0,0.07,0.49,600.0,0.47,4.85,931.91,0.01,2.46,24500.0,
AOXLT781717,CABINDA,N,-5.55,12.2,20.0,13.0,0.36,1.02,183.33,6.73,12.62,87.52,6.9,10.18,47.54,
AOXLT894964,PORTO_AMBOIM,N,-10.7,13.75,5.0,0.0,0.1,0.21,110.0,2.09,3.58,71.29,0.0,0.0,0.0,
AQC00914869,TAFUNA_AP_TUTUILA,N,-14.3333,-170.7167,3.0,0.0,0.09,0.18,100.0,1.36,2.66,95.59,5.27,7.52,42.69,
AQW00061705,PAGO_PAGO_WSO_AP,N,-14.3306,-170.7136,3.7,0.0,0.09,0.18,100.0,1.35,2.64,95.56,4.37,6.38,46.0,
AR000000011,MONTE_CASEROS_AERO,N,-30.267,-57.65,53.0,0.0,0.15,0.27,80.0,1.82,3.14,72.53,1.29,3.16,144.96,
AR000087007,LA_QUIACA_OBSERVATO,N,-22.1,-65.6,3479.0,15.0,0.12,0.17,41.67,2.61,3.75,43.68,23.66,31.22,31.95,
AR000087065,RIVADAVIA,N,-24.167,-62.9,205.0,0.0,0.01,0.03,200.0,0.13,0.37,184.62,0.01,0.01,0.0,
AR000087078,LAS_LOMITAS,N,-24.7,-60.583,130.0,12.0,0.04,0.08,100.0,0.81,1.76,117.28,3.41,8.21,140.76,
AR000087129,SANTIAGO_DEL_ESTERO,N,-27.767,-64.3,200.0,23.0,0.99,1.75,76.77,9.91,15.08,52.17,11.68,22.71,94.43,
AR000087155,RESISTENCIA_AERO,N,-27.45,-59.05,53.0,37.0,1.07,1.81,69.16,4.42,10.32,133.48,1.09,7.63,600.0,
AR000087217,LA_RIOJA_AERO,N,-29.383,-66.817,438.0,21.0,0.3,0.75,150.0,4.62,9.32,101.73,3.0,7.9,163.33,
AR000087257,CERES_AERO,N,-29.883,-61.95,88.0,19.0,0.09,0.17,88.89,1.04,2.03,95.19,16.76,29.3,74.82,
AR000087270,RECONQUISTA_AERO,N,-29.183,-59.7,53.0,0.0,0.27,0.49,81.48,2.35,4.8,104.26,0.14,0.21,50.0,
AR000087344,CORDOBA_AERO,N,-31.317,-64.217,489.0,30.0,2.93,5.2,77.47,5.58,13.35,139.25,1.89,4.37,131.22,
AR000087374,PARANA_AERO,N,-31.783,-60.483,74.0,30.0,1.35,2.25,66.67,6.6,13.67,107.12,4.3,13.18,206.51,
AR000087418,MENDOZA_AERO,N,-32.833,-68.783,704.0,29.0,2.09,4.04,93.3,6.19,11.67,88.53,1.56,3.09,98.08,
AR000087534,LABOULAYE_AERO,N,-34.133,-63.367,137.0,27.0,0.1,0.17,70.0,1.7,3.12,83.53,1.25,4.17,233.6,
AR000087623,SANTA_ROSA_AERO,N,-36.567,-64.266,192.0,0.0,0.33,0.64,93.94,1.68,3.46,105.95,0.04,0.06,50.0,
AR000087692,MAR_DEL_PLATA_AERO,N,-37.933,-57.583,22.0,16.0,1.48,2.02,36.49,7.71,11.52,49.42,1.31,2.87,119.08,
AR000087715,NEUQUEN_AERO,N,-38.95,-68.133,273.0,23.0,0.82,1.62,97.56,5.19,11.74,126.2,8.64,19.59,126.74,
AR000087803,ESQUEL_AERO,N,-42.933,-71.15,799.0,0.0,0.08,0.11,37.5,0.01,0.02,100.0,0.0,0.0,0.0,
AR000087828,TRELEW_AERO,N,-43.2,-65.266,43.0,0.0,0.37,0.52,40.54,0.69,1.07,55.07,0.01,0.02,100.0,
AR000087860,COMODORO_RIVADAVIA,N,-45.783,-67.5,58.0,22.0,0.41,0.65,58.54,1.92,3.01,56.77,5.36,7.68,43.28,
AR000087925,RIO_GALLEGOS_AERO,N,-51.617,-69.283,19.0,0.0,0.21,0.34,61.9,3.95,6.31,59.75,1.85,4.69,153.51,
AR000870470,SALTA_AERO,N,-24.85,-65.483,1246.0,10.0,1.1,1.79,62.73,4.39,6.83,55.58,2.9,3.92,35.17,
AR000873050,JACHAL,N,-30.25,-68.75,1175.0,13.0,0.08,0.11,37.5,1.07,1.58,47.66,9.01,13.82,53.39,
AR000875440,PEHUAJO_AERO,N,-35.867,-61.9,85.0,0.0,0.12,0.24,100.0,0.44,1.23,179.55,0.11,0.19,72.73,
AR000875850,BUENOS_AIRES_OBSERV,N,-34.583,-58.483,25.0,92.0,15.79,20.24,28.18,35.31,38.92,10.22,38.54,43.14,11.94,
AR000877500,BAHIA_BLANCA_AERO,N,-38.733,-62.167,75.0,0.0,0.95,1.5,57.89,1.99,4.46,124.12,3.01,5.37,78.41,
ARM00087016,ORAN,N,-23.153,-64.329,356.0,19.0,0.19,0.38,100.0,2.47,4.99,102.02,11.39,19.85,74.28,
ARM00087022,GENERAL_ENRIQUE_MOSCONI_TARTA,N,-22.62,-63.794,449.0,0.0,0.13,0.27,107.69,0.73,1.32,80.82,0.08,0.17,112.5,
ARM00087046,JUJUY,N,-24.393,-65.098,920.2,0.0,0.7,1.3,85.71,1.94,3.49,79.9,1.92,4.48,133.33,
ARM00087121,TENIENTE_BENJAMIN_MATIENZO,N,-26.841,-65.105,455.7,18.0,1.81,3.25,79.56,3.14,6.59,109.87,2.53,4.0,58.1,
ARM00087148,PRESIDENCIA_ROQUE_SAENZ_PENA,N,-26.733,-60.483,93.0,0.0,0.25,0.51,104.0,0.71,1.81,154.93,0.05,0.08,60.0,
ARM00087162,FORMOSA,N,-26.213,-58.228,59.1,15.0,0.4,0.77,92.5,4.65,8.68,86.67,1.42,3.73,162.68,
ARM00087166,CORRIENTES,N,-27.446,-58.762,61.9,23.0,1.23,2.06,67.48,4.17,6.97,67.15,1.07,3.38,215.89,
ARM00087178,POSADAS,N,-27.386,-55.971,131.1,15.0,0.69,1.63,136.23,2.64,9.27,251.14,0.85,2.43,185.88,
ARM00087222,CATAMARCA,N,-28.596,-65.752,463.9,0.0,0.48,0.86,79.17,0.04,0.06,50.0,0.25,0.36,44.0,
ARM00087244,VILLA_MARIA_DEL_RIO,N,-29.9,-63.683,341.0,0.0,0.04,0.08,100.0,0.35,0.7,100.0,0.03,0.06,100.0,
ARM00087289,PASO_DE_LOS_LIBRES,N,-29.689,-57.152,70.1,0.0,0.32,0.57,78.12,0.97,2.24,130.93,0.43,0.69,60.47,
ARM00087311,SAN_JUAN,N,-31.571,-68.418,597.1,0.0,1.24,2.13,71.77,0.93,1.56,67.74,0.33,0.42,27.27,
ARM00087320,CHAMICAL_AERO,N,-30.367,-66.283,461.0,17.0,0.05,0.1,100.0,0.72,1.73,140.28,0.01,0.01,0.0,
ARM00087322,CHEPES,N,-31.333,-66.6,658.0,12.0,0.03,0.07,133.33,0.5,1.43,186.0,3.52,7.96,126.14,
ARM00087328,VILLA_DOLORES,N,-31.945,-65.146,583.7,15.0,0.28,0.5,78.57,2.7,4.34,60.74,3.45,7.3,111.59,
ARM00087345,CORDOBA_OBSERVATORIO,N,-31.4,-64.183,426.0,94.0,2.76,4.88,76.81,33.07,38.3,15.81,38.67,41.4,7.06,
ARM00087349,PILAR_OBSERVATORIO,N,-31.667,-63.883,338.0,16.0,0.32,0.63,96.88,2.53,4.87,92.49,6.72,16.97,152.53,
ARM00087395,COMODORO_PIERRESTEGUI,N,-31.297,-57.997,34.1,0.0,0.6,1.15,91.67,0.5,1.11,122.0,0.41,1.07,160.98,
ARM00087416,SAN_MARTIN,N,-33.083,-68.417,653.0,0.0,0.74,1.3,75.68,2.66,4.76,78.95,1.75,3.01,72.0,
ARM00087420,MENDOZA_OBSERVATORIO,N,-32.883,-68.85,827.0,54.0,2.1,4.07,93.81,17.32,30.77,77.66,24.2,41.44,71.24,
ARM00087436,SAN_LUIS,N,-33.273,-66.356,709.9,25.0,0.35,0.82,134.29,5.8,10.88,87.59,0.65,3.45,430.77,
ARM00087448,VILLA_REYNOLDS,N,-33.73,-65.387,484.9,0.0,0.23,0.59,156.52,0.26,1.04,300.0,0.57,1.15,101.75,
ARM00087453,RIO_CUARTO_AREA_DE_MATERIAL,N,-33.085,-64.261,420.9,0.0,0.43,0.89,106.98,0.76,1.69,122.37,0.46,0.7,52.17,
ARM00087467,MARCOS_JUAREZ,N,-32.684,-62.158,110.0,15.0,0.17,0.3,76.47,1.06,2.08,96.23,0.25,0.6,140.0,
ARM00087480,ROSARIO,N,-32.904,-60.785,25.9,19.0,2.2,3.7,68.18,2.52,8.8,249.21,1.19,4.35,265.55,
ARM00087497,GUALEGUAYCHU,N,-33.01,-58.613,22.9,0.0,0.19,0.4,110.53,0.47,1.13,140.43,0.5,0.99,98.0,
ARM00087506,MALARGUE,N,-35.494,-69.574,1430.1,0.0,0.06,0.12,100.0,1.3,2.72,109.23,0.92,1.52,65.22,
ARM00087509,SAN_RAFAEL,N,-34.588,-68.403,752.9,0.0,0.46,0.8,73.91,2.53,4.36,72.33,3.45,4.61,33.62,
ARM00087532,GENERAL_PICO,N,-35.696,-63.758,139.9,18.0,0.19,0.35,84.21,3.55,6.07,70.99,0.95,1.37,44.21,
ARM00087548,JUNIN,N,-34.546,-60.931,79.9,11.0,0.28,0.53,89.29,3.28,6.04,84.15,0.44,1.33,202.27,
ARM00087550,NUEVE_DE_JULIO,N,-35.45,-60.883,76.0,30.0,0.17,0.29,70.59,3.01,5.41,79.73,35.7,44.68,25.15,
ARM00087563,LAS_FLORES,N,-36.067,-59.1,38.0,0.0,0.08,0.14,75.0,0.47,0.87,85.11,0.22,0.43,95.45,
ARM00087576,MINISTRO_PISTARINI,N,-34.822,-58.536,20.4,31.0,12.26,16.94,38.17,5.95,11.86,99.33,2.33,3.01,29.18,
ARM00087582,AEROPARQUE_JORGE_NEWBERY,N,-34.559,-58.416,5.5,80.0,13.4,16.26,21.34,15.37,18.03,17.31,5.1,7.06,38.43,
ARM00087593,LA_PLATA,N,-34.972,-57.895,21.9,20.0,2.08,3.58,72.12,6.78,11.54,70.21,0.47,2.41,412.77,
ARM00087596,PUNTA_INDIO_BA,N,-35.367,-57.283,22.0,0.0,0.05,0.1,100.0,0.39,0.78,100.0,0.06,0.1,66.67,
ARM00087637,CORONEL_SUAREZ_AERO,N,-37.433,-61.883,233.0,0.0,0.11,0.23,109.09,1.5,2.76,84.0,0.06,0.1,66.67,
ARM00087640,BOLIVAR_AERO,N,-36.2,-61.067,94.0,0.0,0.12,0.2,66.67,1.83,2.64,44.26,0.16,0.23,43.75,
ARM00087641,AZUL_AERO,N,-36.833,-59.883,147.0,0.0,0.21,0.33,57.14,1.13,2.16,91.15,0.45,1.31,191.11,
ARM00087645,TANDIL,N,-37.237,-59.228,175.0,0.0,0.33,0.58,75.76,0.1,0.2,100.0,0.17,0.54,217.65,
ARM00087648,DOLORES_AIRPORT,N,-36.35,-57.733,9.0,0.0,0.08,0.15,87.5,0.97,1.62,67.01,0.0,0.0,0.0,
ARM00087679,PIGUE_AIRPORT,N,-37.6,-62.383,304.0,17.0,0.09,0.16,77.78,1.29,2.51,94.57,1.67,3.96,137.13,
ARM00087688,TRES_ARROYOS,N,-38.387,-60.33,121.9,21.0,0.18,0.3,66.67,2.42,4.09,69.01,0.4,0.8,100.0,
ARM00087736,RIO_COLORADO,N,-39.017,-64.083,79.0,0.0,0.06,0.11,83.33,1.33,2.38,78.95,0.43,0.81,88.37,
ARM00087765,SAN_CARLOS_DE_BARILOCHE,N,-41.151,-71.158,846.1,0.0,0.29,0.36,24.14,0.02,0.03,50.0,0.25,0.32,28.0,
ARM00087774,MAQUINCHAO,N,-41.25,-68.733,888.0,0.0,0.01,0.01,0.0,0.3,0.35,16.67,0.0,0.0,0.0,
ARM00087784,SAN_ANTONIO_OESTE_AERO,N,-40.783,-65.1,20.0,0.0,0.04,0.16,300.0,0.17,1.28,652.94,0.0,0.01,0.0,
ARM00087791,GOBERNADOR_CASTELLO,N,-40.869,-63.0,6.1,0.0,0.15,0.32,113.33,0.4,1.56,290.0,0.23,0.34,47.83,
ARM00087800,EL_BOLSON,N,-41.943,-71.532,344.7,0.0,0.1,0.15,50.0,1.2,1.88,56.67,3.68,6.34,72.28,
ARM00087814,PASO_DE_INDIOS,N,-43.817,-68.883,460.0,0.0,0.0,0.01,0.0,0.0,0.0,0.0,0.0,0.0,0.0,
ARM00087823,PMADRYN_AERO,N,-42.733,-65.067,136.0,13.0,0.19,0.3,57.89,3.56,4.54,27.53,1.57,2.98,89.81,
ARM00087852,PERITO_MORENO_ARPT,N,-46.517,-71.017,429.0,0.0,0.03,0.03,0.0,0.0,0.0,0.0,0.0,0.0,0.0,
ARM00087880,GOBERNADOR_GREGORES,N,-48.783,-70.167,356.0,0.0,0.02,0.02,0.0,0.02,0.03,50.0,0.05,0.06,20.0,
ARM00087896,PUERTO_DESEADO,N,-47.735,-65.904,81.1,0.0,0.03,0.06,100.0,0.69,1.46,111.59,2.39,8.09,238.49,
ARM00087903,LAGO_ARGENTINO_ARPT,N,-50.333,-72.3,220.0,0.0,0.04,0.05,25.0,0.98,1.21,23.47,0.69,0.97,40.58,
ARM00087904,EL_CALAFATE_AERO,N,-50.267,-72.05,204.0,0.0,0.04,0.05,25.0,0.01,0.01,0.0,0.0,0.0,0.0,
ARM00087909,SAN_JULIAN,N,-49.307,-67.803,57.9,0.0,0.01,0.04,300.0,0.13,0.46,253.85,0.04,0.06,50.0,
ARM00087934,RIO_GRANDE,N,-53.778,-67.749,19.8,24.0,0.12,0.16,33.33,2.67,3.25,21.72,2.46,2.59,5.28,
ARM00087938,USHUAIA_MALVINAS_ARGENTINAS,N,-54.843,-68.296,21.6,0.0,0.06,0.11,83.33,1.23,1.95,58.54,0.14,0.41,192.86,
ARN00000038,GENERALVILLEGAS_INTA,N,-34.92,-62.73,9999.0,0.0,0.05,0.12,140.0,0.02,0.04,100.0,0.0,0.0,0.0,
ARN00000067,BELLAVISTA_INTA,N,-28.43,-58.92,9999.0,0.0,0.13,0.22,69.23,0.27,0.38,40.74,0.2,0.29,45.0,
ARN00000070,CATAMARCA_INTASUMALAO,N,-28.48,-65.73,9999.0,28.0,0.48,0.86,79.17,4.9,8.55,74.49,4.36,8.58,96.79,
ARN00000098,RAFAELA_INTA,N,-31.18,-61.55,9999.0,0.0,0.31,0.64,106.45,0.1,0.28,180.0,0.02,0.03,50.0,
ARN00000145,PERGAMINO_INTA,N,-33.93,-60.55,9999.0,0.0,0.3,0.51,70.0,4.97,7.25,45.88,0.36,1.08,200.0,
ARN00000216,BARROW_INTA,N,-38.32,-60.25,9999.0,0.0,0.18,0.3,66.67,0.59,1.22,106.78,0.28,0.35,25.0,
ARN00000230,ALTOVALLEDERIONEGRO_INTA,N,-39.01,-67.4,9999.0,0.0,0.28,0.54,92.86,0.22,0.36,63.64,0.0,0.0,0.0,
ARN00000343,BORDENAVE_INTABUENOSAIRES,N,-37.85,-63.02,9999.0,0.0,0.06,0.1,66.67,0.08,0.14,75.0,0.01,0.02,100.0,
ARN00000358,CASTELAR_INTA,N,-34.67,-58.65,9999.0,74.0,14.53,20.53,41.29,31.03,37.46,20.72,13.0,17.24,32.62,
ARN00000400,BALCARCE_INTABUENOSAIRES,N,-37.75,-58.3,9999.0,0.0,0.15,0.25,66.67,0.08,0.16,100.0,0.17,0.27,58.82,
ARN00000416,LASBREAS_INTA,N,-27.1,-61.1,9999.0,17.0,0.17,0.38,123.53,1.1,2.88,161.82,2.15,13.63,533.95,
ARN00000421,HILARIOASCASUBI_INTA,N,-39.38,-62.62,9999.0,0.0,0.09,0.16,77.78,0.34,0.69,102.94,0.24,0.67,179.17,
ARN00000423,CERROAZUL_INTA,N,-27.65,-55.43,9999.0,0.0,0.16,0.32,100.0,0.14,0.23,64.29,0.55,0.9,63.64,
ARN00000438,MANFREDI_INTA,N,-31.82,-63.77,9999.0,0.0,0.27,0.49,81.48,0.57,1.01,77.19,0.09,0.25,177.78,
ARN00000442,LACONSULTA_INTA_MENDOZA,N,-33.73,-69.12,9999.0,11.0,0.23,0.43,86.96,0.89,1.64,84.27,5.12,13.39,161.52,
ARN00000444,FAMAILLA_INTA_TUCUMA,N,-27.05,-65.42,9999.0,0.0,0.99,1.74,75.76,1.35,2.84,110.37,2.8,8.61,207.5,
ARN00000445,SANJUANPOCITO_INTA,N,-31.37,-68.32,9999.0,0.0,0.88,1.52,72.73,0.04,0.06,50.0,0.0,0.0,0.0,
ARN00000446,ANGUIL_INTALAPAMPA,N,-36.5,-63.98,9999.0,0.0,0.04,0.07,75.0,0.24,0.38,58.33,0.0,0.0,0.0,
ARN00000448,RAMACAIDA_INTA_MENDOZA,N,-34.67,-68.38,9999.0,0.0,0.46,0.82,78.26,2.24,4.27,90.62,1.71,2.64,54.39,
ARN00000457,ABRAPAMPA_INTA_JUJUY,N,-22.83,-65.85,9999.0,0.0,0.02,0.04,100.0,0.01,0.02,100.0,0.0,0.0,0.0,
ARN00000464,ELCOLORADO_INTA,N,-26.3,-59.38,9999.0,13.0,0.07,0.16,128.57,0.62,1.78,187.1,4.74,10.8,127.85,
ARN00000472,OLIVEROS_INTA,N,-32.55,-60.85,9999.0,0.0,0.31,0.67,116.13,0.42,0.92,119.05,0.29,0.92,217.24,
ARN00000492,SANPEDRO_INTA,N,-33.68,-59.68,9999.0,28.0,0.24,0.45,87.5,2.57,4.29,66.93,15.2,25.69,69.01,
ARN00000496,CONCORDIA_INTA,N,-31.38,-58.03,9999.0,57.0,0.59,1.14,93.22,6.09,11.49,88.67,31.94,39.49,23.64,
ARN00000497,CONCDELURUGUAY_INTA,N,-32.4,-58.23,9999.0,0.0,0.59,1.17,98.31,0.13,0.22,69.23,0.0,0.0,0.0,
ARN00000498,MERCEDES_INTACTES,N,-29.17,-58.02,9999.0,0.0,0.08,0.17,112.5,0.45,1.03,128.89,0.0,0.0,0.0,
ARXLT052250,SANTA_CRUZ_PUERTO_WAS_879140,N,-50.2,-68.4,12.0,0.0,0.02,0.02,0.0,0.0,0.0,0.0,0.0,0.0,0.0,
ARXLT082667,CHOS_MALAL,N,-37.1,-70.3,864.0,0.0,0.01,0.02,100.0,0.01,0.01,0.0,0.04,0.05,25.0,
ARXLT097381,CIPOLLETTI,N,-38.95,-67.98,265.0,37.0,0.87,1.71,96.55,4.86,9.36,92.59,9.16,20.98,129.04,
ARXLT099684,GEN_CONESA_ARGENTI,N,-36.5,-57.3,9999.0,0.0,0.01,0.02,100.0,0.11,0.32,190.91,0.21,0.39,85.71,
ARXLT122749,COLONIA_SARM,N,-45.58,-69.07,272.0,34.0,0.04,0.06,50.0,0.97,1.31,35.05,10.48,14.57,39.03,
ARXLT146898,LAS_LAJAS,N,-38.53,-70.38,713.0,0.0,0.02,0.03,50.0,0.4,0.65,62.5,2.28,3.99,75.0,
ARXLT185239,MAR_DEL_PLATAWAS_876940,N,-38.0,-57.1,24.0,0.0,0.0,0.0,0.0,0.0,0.0,0.0,0.0,0.0,0.0,
ARXLT203610,SAUCE_VIEJO_AERO,N,-31.7,-60.81,18.0,21.0,1.11,1.85,66.67,3.55,7.35,107.04,0.65,0.93,43.08,
ARXLT208531,CHACRAS_DE_CORIA,N,-32.98,-68.86,921.0,24.0,2.1,4.07,93.81,7.27,15.78,117.06,9.16,21.06,129.91,
ARXLT242717,CHOELE_CHOEL_ARGENT,N,-39.2,-66.8,9999.0,0.0,0.06,0.12,100.0,0.03,0.07,133.33,0.01,0.01,0.0,
ARXLT297472,PUNTA_DUNGEN,N,-52.4,-68.4,5.0,19.0,0.0,0.0,0.0,0.01,0.02,100.0,0.0,0.0,0.0,
ARXLT309443,MACACHIN_ARGENTINA,N,-37.1,-63.7,142.0,0.0,0.03,0.06,100.0,0.45,0.84,86.67,0.01,0.01,0.0,
ARXLT328770,GENERAL_ACHA,N,-37.4,-64.6,230.0,0.0,0.05,0.09,80.0,1.07,1.89,76.64,0.65,0.94,44.62,
ARXLT361672,ANDALGALA_ARGENTINA,N,-27.6,-66.2,9999.0,0.0,0.05,0.08,60.0,0.02,0.02,0.0,0.0,0.0,0.0,
ARXLT374324,VICTORICA,N,-36.22,-65.42,312.0,12.0,0.03,0.05,66.67,0.48,0.98,104.17,3.22,7.38,129.19,
ARXLT417177,GENERAL_PAZ,N,-27.75,-57.63,74.0,9.0,0.03,0.05,66.67,0.39,0.68,74.36,3.82,7.79,103.93,
ARXLT498842,GOYA,N,-29.1,-59.3,36.0,0.0,0.36,0.56,55.56,1.38,1.71,23.91,0.0,0.0,0.0,
ARXLT513600,AZUL_ARGENTINA,N,-36.8,-59.8,131.0,16.0,0.19,0.29,52.63,1.65,2.55,54.55,0.02,0.03,50.0,
ARXLT538245,VILLAGUAY_AERO,N,-31.85,-59.08,43.0,0.0,0.12,0.26,116.67,1.04,2.51,141.35,0.09,0.16,77.78,
ARXLT581111,MERCEDES_ARGENTINA,N,-34.7,-59.5,9999.0,0.0,0.24,0.44,83.33,0.39,0.94,141.03,0.06,0.1,66.67,
ARXLT645851,LA_PAZ_ARGENTINA,N,-30.8,-59.8,9999.0,0.0,0.12,0.24,100.0,0.0,0.0,0.0,0.0,0.0,0.0,
ARXLT657745,PTO_PTE_FRANCO_PAR,N,-25.6,-54.6,125.0,17.0,1.06,2.9,173.58,3.49,9.44,170.49,1.3,3.94,203.08,
ARXLT662267,CEVIL_POZO_AERO,N,-26.9,-65.1,5.0,0.0,1.81,3.24,79.01,0.75,1.52,102.67,2.09,3.54,69.38,
ARXLT663345,CASILDA_ARGENTINA,N,-33.0,-61.2,9999.0,0.0,0.33,0.59,78.79,1.1,1.53,39.09,0.09,0.15,66.67,
ARXLT678345,BELL_VILLE_ARGENTIN,N,-32.5,-62.6,9999.0,0.0,0.16,0.31,93.75,0.03,0.06,100.0,0.0,0.0,0.0,
ARXLT725249,ESQUEL,N,-42.9,-71.35,568.0,0.0,0.1,0.15,50.0,1.87,2.6,39.04,0.02,0.03,50.0,
ARXLT725895,TUCUMAN,N,-26.85,-65.18,427.0,44.0,1.86,3.35,80.11,17.0,24.98,46.94,18.23,28.8,57.98,
ARXLT754115,PCIA_R_SCIE,N,-26.82,-60.45,93.0,16.0,0.29,0.6,106.9,4.44,8.24,85.59,1.51,8.75,479.47,
ARXLT811415,SAN_JUANARGWAS_873120,N,-31.5,-68.7,630.0,0.0,1.08,1.89,75.0,0.56,0.84,50.0,0.0,0.0,0.0,
ARXLT834021,SALTA,N,-24.78,-65.42,1173.0,39.0,1.08,1.76,62.96,12.57,17.91,42.48,30.23,38.04,25.84,
ARXLT847638,SAN_MIGUEL_ARGENTIN,N,-34.3,-58.7,9999.0,0.0,3.4,6.36,87.06,0.26,0.52,100.0,0.0,0.0,0.0,
ARXLT893853,PATAGONES_ARGENTINA,N,-46.8,-69.5,9999.0,0.0,0.0,0.0,0.0,0.0,0.0,0.0,0.0,0.0,0.0,
ARXLT894786,PUERTO_MADRYN_WAS_878280,N,-42.8,-65.0,14.0,28.0,0.19,0.3,57.89,2.83,4.31,52.3,0.16,0.33,106.25,
ARXLT926859,TUCUMAN_OBSERVATORIO,N,-26.8,-65.2,480.0,50.0,1.77,3.17,79.1,19.03,27.66,45.35,31.38,41.68,32.82,
ARXLT945445,CATAMARCA_AEROARG,N,-28.5,-65.8,531.0,21.0,0.48,0.87,81.25,5.85,10.06,71.97,11.04,21.84,97.83,
ARXLT954992,ANO_NUEVO,N,-54.7,-64.2,53.0,0.0,0.0,0.0,0.0,0.0,0.0,0.0,0.0,0.0,0.0,
ARXLT965754,VERA_ARGENTINA,N,-29.4,-60.2,9999.0,0.0,0.09,0.17,88.89,0.1,0.19,90.0,0.02,0.04,100.0,
ASM00094275,GEORGETOWN_POST_OFFICE,N,-18.3,143.55,295.0,0.0,0.0,0.01,0.0,0.05,0.16,220.0,0.82,2.6,217.07,
ASM00094299,WILLIS_ISLAND,N,-16.288,149.965,9.0,0.0,0.0,0.0,0.0,0.0,0.0,0.0,0.0,0.0,0.0,
ASM00094940,JERVIS_BAY,N,-35.083,150.8,85.0,0.0,0.27,0.62,129.63,0.0,0.01,0.0,0.0,0.0,0.0,
ASM00094995,LORD_HOWE_ISLAND_AERO,N,-31.542,159.079,7.0,0.0,0.0,0.0,0.0,0.03,0.06,100.0,0.0,0.0,0.0,
ASM00094997,HEARD_ISLAND_THE_SPIT,N,-53.1,73.717,12.0,0.0,0.0,0.0,0.0,0.0,0.0,0.0,0.0,0.0,0.0,
ASM00094998,MACQUARIE_ISLAND,N,-54.499,158.937,8.3,0.0,0.0,0.0,0.0,0.0,0.0,0.0,0.0,0.0,0.0,
ASM00095997,HEARD_ISLAND_ATLAS_COVE,N,-53.017,73.4,4.0,0.0,0.0,0.0,0.0,0.0,0.0,0.0,0.0,0.0,0.0,
ASN00001005,WYNDHAM_PORT,N,-15.4644,128.1,20.0,0.0,0.01,0.02,100.0,0.17,0.36,111.76,0.16,1.06,562.5,
ASN00001006,WYNDHAM_AERO,N,-15.51,128.1503,3.8,0.0,0.01,0.02,100.0,0.16,0.33,106.25,0.16,0.31,93.75,
ASN00001007,TROUGHTON_ISLAND,N,-13.7542,126.1485,6.0,0.0,0.0,0.0,0.0,0.0,0.0,0.0,0.0,0.08,0.0,
ASN00001009,KURI_BAY,N,-15.4875,124.5222,12.0,0.0,0.0,0.0,0.0,0.0,0.02,0.0,0.0,0.45,0.0,
ASN00001012,MITCHELL_PLATEAU,N,-14.7925,125.8258,315.0,0.0,0.0,0.0,0.0,0.0,0.0,0.0,0.01,0.01,0.0,
ASN00001013,WYNDHAM,N,-15.4872,128.1247,11.0,0.0,0.01,0.02,100.0,0.19,0.41,115.79,3.25,5.98,84.0,
ASN00001018,MOUNT_ELIZABETH,N,-16.4181,126.1025,546.0,0.0,0.0,0.0,0.0,0.0,0.0,0.0,0.0,0.04,0.0,
ASN00001019,KALUMBURU,N,-14.2964,126.6453,23.0,0.0,0.0,0.0,0.0,0.04,0.04,0.0,0.91,1.08,18.68,
ASN00001020,TRUSCOTT,N,-14.09,126.3867,51.0,0.0,0.0,0.0,0.0,0.0,0.0,0.0,0.08,0.09,12.5,
ASN00001021,KALUMBURU_MISSION,N,-14.2961,126.6431,23.0,0.0,0.0,0.0,0.0,0.04,0.04,0.0,0.91,1.08,18.68,
ASN00001025,DOONGAN,N,-15.3797,126.3114,385.0,0.0,0.0,0.0,0.0,0.0,0.0,0.0,0.0,0.0,0.0,
ASN00002011,OLD_HALLS_CREEK,N,-18.2519,127.7817,360.0,0.0,0.0,0.01,0.0,0.0,0.0,0.0,0.02,0.1,400.0,
ASN00002012,HALLS_CREEK_AIRPORT,N,-18.2292,127.6636,422.0,0.0,0.0,0.01,0.0,0.06,0.14,133.33,0.83,1.74,109.64,
ASN00002014,KIMBERLEY_RESSTATION,N,-15.6547,128.7092,31.0,0.0,0.04,0.09,125.0,0.05,0.16,220.0,0.05,0.53,960.0,
ASN00002032,WARMUN,N,-17.0156,128.2175,203.0,0.0,0.0,0.0,0.0,0.01,0.05,400.0,0.05,0.25,400.0,
ASN00002038,KUNUNURRA,N,-15.7828,128.7353,47.0,9.0,0.04,0.09,125.0,0.69,1.51,118.84,7.07,11.2,58.42,
ASN00002056,KUNUNURRA_AERO,N,-15.7814,128.71,44.0,0.0,0.04,0.09,125.0,0.67,1.47,119.4,0.28,0.78,178.57,
ASN00002064,ARGYLE_AERODROME,N,-16.6381,128.4517,164.0,0.0,0.0,0.01,0.0,0.0,0.01,0.0,0.01,0.08,700.0,
ASN00002071,HALLS_CREEK_COMPARISON,N,-18.2303,127.6625,422.0,0.0,0.0,0.01,0.0,0.06,0.14,133.33,0.76,1.65,117.11,
ASN00003002,BROOME_POST_OFFICE,N,-17.95,122.25,19.0,13.0,0.08,0.18,125.0,1.93,3.9,102.07,1.48,2.39,61.49,
ASN00003003,BROOME_AIRPORT,N,-17.9475,122.2353,7.4,13.0,0.08,0.18,125.0,1.95,3.96,103.08,4.49,11.1,147.22,
ASN00003004,CAPE_LEVEQUE,N,-16.3961,122.9278,25.0,0.0,0.0,0.01,0.0,0.0,0.01,0.0,0.01,0.19,1800.0,
ASN00003006,FITZROY_CROSSING_COMP,N,-18.1919,125.5644,114.0,0.0,0.01,0.02,100.0,0.12,0.39,225.0,2.2,5.93,169.55,
ASN00003007,DERBY_POST_OFFICE,N,-17.3044,123.6292,8.0,0.0,0.01,0.06,500.0,0.27,1.14,322.22,2.68,8.39,213.06,
ASN00003025,COCKATOO_ISLAND,N,-16.09,123.5942,13.0,0.0,0.0,0.0,0.0,0.01,0.01,0.0,0.09,0.18,100.0,
ASN00003030,BIDYADANGA,N,-18.6844,121.7803,11.0,0.0,0.0,0.01,0.0,0.02,0.1,400.0,0.53,2.52,375.47,
ASN00003032,DERBY_AERO,N,-17.3706,123.6611,6.2,0.0,0.01,0.06,500.0,0.03,0.38,1166.67,0.09,0.53,488.89,
ASN00003057,CYGNET_BAY,N,-16.4514,123.0086,7.0,0.0,0.0,0.01,0.0,0.01,0.02,100.0,0.12,0.22,83.33,
ASN00003080,CURTIN_AERO,N,-17.5736,123.8217,77.5,0.0,0.0,0.02,0.0,0.02,0.11,450.0,0.06,0.26,333.33,
ASN00003093,FITZROY_CROSSING_AERO,N,-18.1814,125.5619,114.5,0.0,0.01,0.02,100.0,0.12,0.38,216.67,0.33,2.39,624.24,
ASN00003096,WEST_ROEBUCK,N,-17.8964,122.3122,32.0,0.0,0.08,0.18,125.0,0.01,0.05,400.0,0.0,0.0,0.0,
ASN00004002,PORT_HEDLAND_POST_OFFICE,N,-20.3139,118.5742,8.0,21.0,0.1,0.2,100.0,0.91,1.24,36.26,6.15,8.11,31.87,
ASN00004019,MANDORA,N,-19.7419,120.8436,7.5,0.0,0.0,0.0,0.0,0.0,0.01,0.0,0.05,0.13,160.0,
ASN00004020,MARBLE_BAR_COMPARISON,N,-21.1756,119.7497,182.3,0.0,0.0,0.01,0.0,0.03,0.13,333.33,0.32,1.86,481.25,
ASN00004027,NULLAGINE,N,-21.8861,120.1103,380.0,0.0,0.0,0.01,0.0,0.01,0.06,500.0,0.2,1.29,545.0,
ASN00004028,PARDOO_STATION,N,-20.1078,119.5811,9.0,0.0,0.0,0.0,0.0,0.0,0.02,0.0,0.01,0.45,4400.0,
ASN00004032,PORT_HEDLAND_AIRPORT,N,-20.3725,118.6317,6.4,9.0,0.1,0.2,100.0,1.19,2.48,108.4,0.47,1.76,274.47,
ASN00004035,ROEBOURNE,N,-20.7767,117.1456,12.0,0.0,0.02,0.04,100.0,0.13,0.25,92.31,1.45,2.74,88.97,
ASN00004043,REDMONT,N,-21.9931,119.0131,387.0,0.0,0.0,0.0,0.0,0.01,0.04,300.0,0.14,0.79,464.29,
ASN00004074,GOLDSWORTHY,N,-20.3422,119.5206,45.0,0.0,0.0,0.0,0.0,0.0,0.0,0.0,0.01,0.01,0.0,
ASN00004083,KARRATHA_AERO,N,-20.7097,116.7742,7.0,11.0,0.11,0.21,90.91,0.63,1.63,158.73,0.46,1.18,156.52,
ASN00004090,ROEBOURNE_AERO,N,-20.7594,117.1583,10.7,0.0,0.02,0.04,100.0,0.13,0.27,107.69,0.01,0.01,0.0,
ASN00004106,MARBLE_BAR,N,-21.1756,119.7497,182.3,0.0,0.0,0.01,0.0,0.03,0.13,333.33,0.32,1.86,481.25,
ASN00005007,LEARMONTH_AIRPORT,N,-22.2406,114.0967,5.0,0.0,0.0,0.01,0.0,0.02,0.08,300.0,0.06,0.25,316.67,
ASN00005008,MARDIE,N,-21.1906,115.9797,11.0,0.0,0.0,0.01,0.0,0.0,0.0,0.0,0.01,0.09,800.0,
ASN00005016,ONSLOW,N,-21.6364,115.1117,4.0,0.0,0.01,0.03,200.0,0.17,0.34,100.0,2.83,4.54,60.42,
ASN00005017,ONSLOW_AIRPORT,N,-21.6689,115.1092,10.5,0.0,0.01,0.03,200.0,0.18,0.34,88.89,0.11,0.17,54.55,
ASN00005024,VLAMINGH_HEAD,N,-21.8067,114.1072,12.0,0.0,0.02,0.04,100.0,0.0,0.01,0.0,0.06,0.3,400.0,
ASN00005026,WITTENOOM,N,-22.2425,118.3358,463.0,0.0,0.0,0.0,0.0,0.0,0.01,0.0,0.09,0.26,188.89,
ASN00005058,BARROW_ISLAND,N,-20.8206,115.3931,62.0,18.0,0.0,0.02,0.0,0.02,0.15,650.0,0.33,0.89,169.7,
ASN00005061,DAMPIER_SALT,N,-20.7278,116.7483,6.0,17.0,0.11,0.21,90.91,0.11,0.45,309.09,0.22,0.27,22.73,
ASN00005069,PANNAWONICA,N,-21.6392,116.3308,200.0,0.0,0.0,0.01,0.0,0.08,0.17,112.5,1.75,3.54,102.29,
ASN00005072,TOM_PRICE,N,-22.6967,117.7703,746.0,0.0,0.02,0.03,50.0,0.4,0.75,87.5,0.19,0.32,68.42,
ASN00005084,THEVENARD_ISLAND,N,-21.4606,115.0197,5.0,29.0,0.01,0.02,100.0,0.02,0.04,100.0,0.4,1.09,172.5,
ASN00005094,BARROW_ISLAND_AIRPORT,N,-20.875,115.4056,6.4,0.0,0.0,0.02,0.0,0.01,0.01,0.0,0.04,0.06,50.0,
ASN00006011,CARNARVON_AIRPORT,N,-24.8878,113.67,4.0,9.0,0.03,0.05,66.67,0.61,1.13,85.25,2.03,3.12,53.69,
ASN00006022,GASCOYNE_JUNCTION,N,-25.0544,115.21,144.0,0.0,0.0,0.0,0.0,0.01,0.05,400.0,0.03,0.91,2933.33,
ASN00006025,HAMELIN_POOL,N,-26.4008,114.1667,15.0,0.0,0.0,0.0,0.0,0.0,0.01,0.0,0.03,0.03,0.0,
ASN00006044,DENHAM,N,-25.9261,113.5319,9.0,0.0,0.01,0.01,0.0,0.14,0.23,64.29,3.2,4.71,47.19,
ASN00006062,CARNARVON_POST_OFFICE,N,-24.9,113.65,4.6,8.0,0.03,0.05,66.67,0.59,1.03,74.58,0.48,1.42,195.83,
ASN00006072,EMU_CREEK_STATION,N,-23.0314,115.0414,111.0,0.0,0.0,0.0,0.0,0.0,0.0,0.0,0.05,0.06,20.0,
ASN00006099,MURCHISON,N,-26.8936,115.9561,287.0,0.0,0.0,0.0,0.0,0.0,0.01,0.0,0.04,0.35,775.0,
ASN00006105,SHARK_BAY_AIRPORT,N,-25.8925,113.5772,33.8,0.0,0.01,0.01,0.0,0.14,0.23,64.29,0.01,0.01,0.0,
ASN00007017,CUE,N,-27.4233,117.8994,453.0,0.0,0.0,0.01,0.0,0.02,0.14,600.0,0.37,3.19,762.16,
ASN00007045,MEEKATHARRA_AIRPORT,N,-26.6136,118.5372,517.0,0.0,0.01,0.02,100.0,0.13,0.33,153.85,0.07,0.24,242.86,
ASN00007046,MEEKATHARRA_POST_OFFICE,N,-26.5933,118.4883,511.0,0.0,0.01,0.02,100.0,0.12,0.32,166.67,1.71,4.17,143.86,
ASN00007057,MOUNT_MAGNET,N,-28.0619,117.8503,426.0,0.0,0.0,0.01,0.0,0.08,0.26,225.0,1.72,5.63,227.33,
ASN00007062,MUNDIWINDI,N,-23.7942,120.2442,571.0,0.0,0.0,0.0,0.0,0.0,0.0,0.0,0.0,0.0,0.0,
ASN00007064,MURGOO,N,-27.3636,116.4261,303.0,0.0,0.0,0.0,0.0,0.0,0.01,0.0,0.02,0.17,750.0,
ASN00007080,THREE_RIVERS,N,-25.1256,119.1514,520.0,0.0,0.0,0.0,0.0,0.0,0.0,0.0,0.06,0.07,16.67,
ASN00007091,YALGOO,N,-28.3392,116.6828,318.0,0.0,0.0,0.0,0.0,0.01,0.05,400.0,0.2,1.33,565.0,
ASN00007139,PAYNES_FIND,N,-29.2708,117.6836,339.0,0.0,0.0,0.0,0.0,0.0,0.02,0.0,0.04,0.12,200.0,
ASN00007151,NEWMAN,N,-23.3683,119.7314,544.0,0.0,0.03,0.07,133.33,0.7,1.4,100.0,5.35,10.72,100.37,
ASN00007176,NEWMAN_AERO,N,-23.4169,119.7989,524.0,0.0,0.03,0.07,133.33,0.01,0.08,700.0,0.13,0.98,653.85,
ASN00007178,PARABURDOO,N,-23.2028,117.6692,391.0,11.0,0.01,0.02,100.0,0.2,0.42,110.0,4.13,8.47,105.08,
ASN00007185,PARABURDOO_AERO,N,-23.1725,117.7494,423.7,0.0,0.01,0.02,100.0,0.0,0.01,0.0,0.01,0.21,2000.0,
ASN00007600,MOUNT_MAGNET_AERO,N,-28.1156,117.8425,407.0,0.0,0.0,0.01,0.0,0.0,0.01,0.0,0.06,0.06,0.0,
ASN00008025,CARNAMAH,N,-29.6889,115.8869,268.0,0.0,0.02,0.06,200.0,0.08,0.33,312.5,1.46,5.66,287.67,
ASN00008028,NABAWA,N,-28.5008,114.7897,145.0,0.0,0.03,0.15,400.0,0.01,0.07,600.0,0.05,0.71,1320.0,
ASN00008039,DALWALLINU_COMPARISON,N,-30.2772,116.6619,335.0,0.0,0.02,0.04,100.0,0.13,0.42,223.08,2.49,8.23,230.52,
ASN00008050,GERALDTON_TOWN,N,-28.7769,114.605,3.0,20.0,0.16,0.49,206.25,3.1,6.65,114.52,12.17,19.41,59.49,
ASN00008051,GERALDTON_AIRPORT,N,-28.7953,114.6975,33.0,16.0,0.16,0.5,212.5,0.25,2.16,764.0,0.18,3.3,1733.33,
ASN00008091,MOORA,N,-30.6417,116.0072,203.0,0.0,0.03,0.08,166.67,0.41,1.06,158.54,7.85,15.06,91.85,
ASN00008093,MORAWA,N,-29.2103,116.0089,274.0,0.0,0.01,0.04,300.0,0.1,0.39,290.0,1.74,8.15,368.39,
ASN00008095,MULLEWA,N,-28.5367,115.5142,268.0,0.0,0.01,0.02,100.0,0.06,0.2,233.33,1.12,4.19,274.11,
ASN00008137,WONGAN_HILLS,N,-30.8917,116.7186,283.0,0.0,0.02,0.05,150.0,0.2,0.56,180.0,4.08,8.98,120.1,
ASN00008138,WONGAN_HILLS_RESSTATION,N,-30.8408,116.7267,305.0,0.0,0.02,0.05,150.0,0.02,0.05,150.0,0.17,0.42,147.06,
ASN00008151,WALEBING,N,-30.665,116.1386,300.0,0.0,0.03,0.09,200.0,0.02,0.05,150.0,0.02,0.13,550.0,
ASN00008225,ENEABBA,N,-29.8183,115.2722,100.0,0.0,0.01,0.02,100.0,0.02,0.13,550.0,0.21,2.45,1066.67,
ASN00008251,KALBARRI,N,-27.7119,114.165,6.0,0.0,0.02,0.03,50.0,0.36,0.7,94.44,7.42,11.26,51.75,
ASN00008267,NOKANENA,N,-28.3517,114.5778,60.0,0.0,0.02,0.05,150.0,0.03,0.12,300.0,0.05,0.07,40.0,
ASN00008290,NORTH_ISLAND,N,-28.3008,113.5936,2.2,0.0,0.0,0.0,0.0,0.01,0.01,0.0,0.17,0.22,29.41,
ASN00008296,MORAWA_AIRPORT,N,-29.2039,116.0247,271.4,0.0,0.01,0.04,300.0,0.1,0.39,290.0,0.13,0.84,546.15,
ASN00008297,DALWALLINU,N,-30.2761,116.6714,324.5,0.0,0.02,0.04,100.0,0.13,0.42,223.08,1.3,5.31,308.46,
ASN00009017,FREMANTLE,N,-32.055,115.75,5.0,45.0,6.17,9.05,46.68,12.86,15.23,18.43,26.54,31.34,18.09,
ASN00009021,PERTH_AIRPORT,N,-31.9275,115.9764,15.4,32.0,6.97,10.89,56.24,12.45,20.05,61.04,0.03,1.46,4766.67,
ASN00009034,PERTH_REGIONAL_OFFICE,N,-31.95,115.8667,19.0,75.0,7.02,10.74,52.99,20.8,23.71,13.99,31.5,34.67,10.06,
ASN00009035,NEDLANDS_UWA,N,-31.9861,115.8192,6.1,28.0,6.94,10.49,51.15,14.53,17.33,19.27,10.51,13.77,31.02,
ASN00009037,BADGINGARRA_RESEARCH_STN,N,-30.3381,115.5394,275.0,0.0,0.02,0.03,50.0,0.01,0.03,200.0,0.06,0.2,233.33,
ASN00009038,ROTTNEST_ISLAND_LIGHTHOUSE,N,-32.0089,115.5022,46.0,0.0,0.51,0.66,29.41,0.06,0.31,416.67,0.04,0.24,500.0,
ASN00009053,PEARCE_RAAF,N,-31.6669,116.0189,40.0,9.0,1.75,3.65,108.57,0.3,1.98,560.0,3.04,6.79,123.36,
ASN00009058,KALAMUNDA,N,-31.9822,116.0594,210.0,14.0,5.43,8.91,64.09,3.3,7.62,130.91,7.68,17.2,123.96,
ASN00009064,KWINANA_BP_REFINERY,N,-32.2258,115.7611,4.0,36.0,3.27,5.88,79.82,3.74,6.5,73.8,12.37,14.4,16.41,
ASN00009106,GOSNELLS_CITY,N,-32.0486,115.9839,10.0,30.0,6.57,10.16,54.64,13.71,20.78,51.57,24.49,32.87,34.22,
ASN00009111,KARNET,N,-32.44,116.0744,286.0,0.0,0.14,0.77,450.0,0.02,0.08,300.0,0.26,1.2,361.54,
ASN00009114,LANCELIN,N,-31.0164,115.33,4.0,0.0,0.03,0.08,166.67,0.33,0.61,84.85,5.46,9.65,76.74,
ASN00009131,JURIEN_BAY,N,-30.3081,115.0311,1.6,0.0,0.02,0.09,350.0,0.23,1.09,373.91,4.02,10.73,166.92,
ASN00009172,JANDAKOT_AERO,N,-32.1011,115.8794,30.0,14.0,5.98,9.21,54.01,10.07,19.0,88.68,1.5,6.39,326.0,
ASN00009178,GINGIN_AERO,N,-31.4628,115.8642,73.0,0.0,0.1,0.81,710.0,0.02,0.16,700.0,0.01,0.47,4600.0,
ASN00009193,ROTTNEST_ISLAND,N,-32.0069,115.5022,43.1,0.0,0.51,0.66,29.41,0.06,0.31,416.67,0.03,0.23,666.67,
ASN00009194,MEDINA_RESEARCH_CENTRE,N,-32.2208,115.8075,14.0,31.0,3.39,6.12,80.53,4.81,10.04,108.73,1.72,5.38,212.79,
ASN00009215,SWANBOURNE,N,-31.9558,115.7619,41.0,24.0,6.8,10.06,47.94,8.41,10.58,25.8,1.84,2.94,59.78,
ASN00009225,PERTH_METRO,N,-31.9192,115.8728,24.9,55.0,6.9,10.6,53.62,23.69,27.64,16.67,16.59,19.81,19.41,
ASN00009240,BICKLEY,N,-32.0056,116.1364,384.0,0.0,3.28,5.81,77.13,0.07,0.81,1057.14,0.08,0.43,437.5,
ASN00009256,GARDEN_ISLAND_HSF,N,-32.2433,115.6839,6.0,13.0,2.35,4.27,81.7,0.93,1.44,54.84,0.01,0.5,4900.0,
ASN00009500,ALBANY,N,-35.0289,117.8808,3.0,12.0,0.17,0.49,188.24,3.05,7.07,131.8,10.48,13.33,27.19,
ASN00009510,BRIDGETOWN_COMPARISON,N,-33.9575,116.1375,149.9,0.0,0.05,0.15,200.0,0.24,1.33,454.17,3.5,8.84,152.57,
ASN00009514,BUNBURY_POST_OFFICE,N,-33.3267,115.63,4.0,26.0,0.36,0.96,166.67,5.18,7.09,36.87,14.4,16.01,11.18,
ASN00009515,BUSSELTON_SHIRE,N,-33.6611,115.3456,4.0,13.0,0.17,0.54,217.65,1.9,4.87,156.32,7.38,19.02,157.72,
ASN00009518,CAPE_LEEUWIN,N,-34.3728,115.1358,13.0,0.0,0.03,0.06,100.0,0.04,0.14,250.0,0.01,0.15,1400.0,
ASN00009519,CAPE_NATURALISTE,N,-33.5372,115.0189,109.0,0.0,0.07,0.24,242.86,0.08,0.24,200.0,0.07,0.11,57.14,
ASN00009534,DONNYBROOK,N,-33.5719,115.8247,63.0,0.0,0.19,0.55,189.47,0.34,1.24,264.71,4.71,10.18,116.14,
ASN00009538,DWELLINGUP,N,-32.7103,116.0594,267.0,0.0,0.08,0.28,250.0,0.09,0.31,244.44,1.16,3.67,216.38,
ASN00009541,ESPERANCE_POST_OFFICE,N,-33.85,121.8833,4.0,12.0,0.1,0.2,100.0,1.91,3.88,103.14,6.46,11.93,84.67,
ASN00009542,ESPERANCE_AERO,N,-33.6825,121.8275,142.0,0.0,0.1,0.21,110.0,0.05,0.18,260.0,0.14,0.35,150.0,
ASN00009569,BUSSELTON,N,-33.655,115.3194,3.9,9.0,0.18,0.56,211.11,1.86,4.45,139.25,9.9,14.78,49.29,
ASN00009572,MANDURAH_PARK,N,-32.5031,115.7664,15.0,11.0,0.71,2.0,181.69,4.45,10.04,125.62,0.64,10.66,1565.62,
ASN00009573,MANJIMUP,N,-34.2508,116.145,286.7,0.0,0.08,0.18,125.0,1.0,1.92,92.0,9.38,13.51,44.03,
ASN00009581,MOUNT_BARKER,N,-34.625,117.6361,300.0,0.0,0.04,0.14,250.0,0.35,0.93,165.71,0.12,0.62,416.67,
ASN00009592,PEMBERTON,N,-34.4478,116.0433,174.0,0.0,0.08,0.17,112.5,0.22,0.58,163.64,2.85,5.68,99.3,
ASN00009603,BUSSELTON_AERO,N,-33.6858,115.4008,16.3,0.0,0.14,0.42,200.0,0.53,1.74,228.3,0.03,0.37,1133.33,
ASN00009617,BRIDGETOWN,N,-33.9486,116.1311,178.7,0.0,0.05,0.15,200.0,0.25,1.36,444.0,1.3,4.42,240.0,
ASN00009628,COLLIE,N,-33.36,116.1467,204.0,9.0,0.09,0.19,111.11,1.76,2.8,59.09,15.13,19.28,27.43,
ASN00009631,ESPERANCE_DOWNS_RESEARCH_STN,N,-33.6031,121.7828,158.0,0.0,0.03,0.07,133.33,0.03,0.08,166.67,0.06,0.07,16.67,
ASN00009637,DENMARK_RESSTN,N,-34.9511,117.37,18.0,0.0,0.03,0.13,333.33,0.2,1.2,500.0,0.07,2.57,3571.43,
ASN00009642,WOKALUP,N,-33.1336,115.8808,30.0,0.0,0.33,0.78,136.36,0.06,0.45,650.0,0.01,1.25,12400.0,
ASN00009741,ALBANY_AIRPORT,N,-34.9414,117.8022,68.0,0.0,0.18,0.52,188.89,0.12,0.79,558.33,0.08,0.78,875.0,
ASN00009746,WITCHCLIFFE,N,-34.0281,115.1042,80.0,0.0,0.07,0.22,214.29,0.16,0.4,150.0,0.41,1.33,224.39,
ASN00009754,METTLER,N,-34.5961,118.5519,120.0,0.0,0.01,0.02,100.0,0.01,0.02,100.0,0.03,0.06,100.0,
ASN00009787,ECLIPSE_ISLAND,N,-35.1833,117.8833,103.0,0.0,0.15,0.41,173.33,0.0,0.01,0.0,0.02,0.06,200.0,
ASN00009789,ESPERANCE,N,-33.83,121.8925,25.0,0.0,0.1,0.21,110.0,1.89,3.92,107.41,6.56,16.21,147.1,
ASN00009812,HARVEY,N,-33.0789,115.8806,40.0,0.0,0.11,0.41,272.73,0.4,1.48,270.0,2.8,8.16,191.43,
ASN00009842,JARRAHWOOD,N,-33.7964,115.6658,130.0,0.0,0.04,0.12,200.0,0.0,0.02,0.0,0.04,0.24,500.0,
ASN00009871,WINDY_HARBOUR,N,-34.8361,116.0308,4.5,0.0,0.01,0.02,100.0,0.02,0.06,200.0,0.49,1.49,204.08,
ASN00009887,MANDURAH,N,-32.5211,115.75,21.0,24.0,0.61,1.83,200.0,5.54,12.39,123.65,16.17,28.71,77.55,
ASN00009961,HOPETOUN_NORTH,N,-33.9306,120.1283,26.0,0.0,0.01,0.02,100.0,0.11,0.35,218.18,0.1,0.82,720.0,
ASN00009964,ROCKY_GULLY,N,-34.5714,117.0106,250.0,0.0,0.01,0.02,100.0,0.01,0.01,0.0,0.08,0.13,62.5,
ASN00009965,BUNBURY,N,-33.3567,115.6447,5.2,19.0,0.38,1.0,163.16,5.69,9.74,71.18,20.65,24.09,16.66,
ASN00009968,SHANNON,N,-34.5683,116.3367,210.0,0.0,0.02,0.04,100.0,0.01,0.01,0.0,0.04,0.06,50.0,
ASN00009977,MANDURAH,N,-32.5219,115.7119,3.0,17.0,0.59,1.78,201.69,5.72,12.32,115.38,9.12,12.75,39.8,
ASN00009994,COLLIE_EAST,N,-33.3608,116.1717,200.0,12.0,0.09,0.19,111.11,1.71,2.66,55.56,5.59,8.75,56.53,
ASN00009998,NORTH_WALPOLE,N,-34.9469,116.7222,73.0,0.0,0.01,0.03,200.0,0.12,0.35,191.67,0.08,0.17,112.5,
ASN00010007,BENCUBBIN,N,-30.8081,117.8603,359.0,0.0,0.01,0.03,200.0,0.05,0.19,280.0,0.86,3.36,290.7,
ASN00010035,CUNDERDIN,N,-31.6494,117.2331,220.0,0.0,0.03,0.08,166.67,0.17,0.52,205.88,2.99,7.86,162.88,
ASN00010058,GOOMALLING,N,-31.2994,116.8269,239.0,0.0,0.03,0.07,133.33,0.17,0.35,105.88,3.78,6.59,74.34,
ASN00010073,KELLERBERRIN,N,-31.6183,117.7217,250.0,0.0,0.03,0.07,133.33,0.21,0.61,190.48,0.58,1.54,165.52,
ASN00010092,MERREDIN,N,-31.4756,118.2789,315.0,12.0,0.04,0.09,125.0,0.62,1.35,117.74,6.83,11.94,74.82,
ASN00010093,MERREDIN_RESEARCH_STATION,N,-31.4994,118.2242,318.0,13.0,0.04,0.09,125.0,0.27,0.68,151.85,0.1,0.43,330.0,
ASN00010111,NORTHAM,N,-31.6508,116.6586,170.0,11.0,0.1,0.32,220.0,1.45,2.62,80.69,8.45,12.7,50.3,
ASN00010144,YORK_POST_OFFICE,N,-31.8836,116.7581,174.0,0.0,0.06,0.19,216.67,0.39,1.43,266.67,4.17,9.03,116.55,
ASN00010152,MURESK_AGRICCOLLEGE,N,-31.75,116.6833,166.0,0.0,0.11,0.33,200.0,0.03,0.15,400.0,0.23,0.77,234.78,
ASN00010244,BAKERS_HILL_CSIRO,N,-31.7603,116.4781,330.0,0.0,0.11,0.39,254.55,0.08,0.87,987.5,0.13,0.37,184.62,
ASN00010286,CUNDERDIN_AIRFIELD,N,-31.6219,117.2217,216.7,0.0,0.03,0.07,133.33,0.18,0.54,200.0,0.21,1.26,500.0,
ASN00010311,YORK,N,-31.8997,116.765,179.0,0.0,0.05,0.17,240.0,0.4,1.42,255.0,2.78,5.76,107.19,
ASN00010515,BEVERLEY,N,-32.1083,116.9247,199.0,0.0,0.05,0.13,160.0,0.23,0.65,182.61,4.76,8.98,88.66,
ASN00010524,BROOKTON,N,-32.3725,117.0072,250.0,0.0,0.04,0.09,125.0,0.12,0.42,250.0,2.19,6.94,216.89,
ASN00010536,CORRIGIN,N,-32.3292,117.8733,295.0,0.0,0.02,0.05,150.0,0.26,0.45,73.08,5.46,8.58,57.14,
ASN00010554,GLEN_LOSSIE,N,-33.8167,117.1667,330.0,0.0,0.03,0.09,200.0,0.29,0.68,134.48,0.09,0.85,844.44,
ASN00010568,HYDEN,N,-32.4419,118.8983,299.0,0.0,0.01,0.03,200.0,0.07,0.2,185.71,0.09,0.34,277.78,
ASN00010579,KATANNING_COMPARISON,N,-33.6886,117.5553,310.0,10.0,0.06,0.13,116.67,1.01,1.71,69.31,18.55,21.79,17.47,
ASN00010582,KOJONUP,N,-33.83,117.159,305.0,0.0,0.03,0.09,200.0,0.29,0.7,141.38,5.27,9.71,84.25,
ASN00010592,LAKE_GRACE_COMPARISON,N,-33.1006,118.4625,286.0,0.0,0.02,0.04,100.0,0.15,0.33,120.0,2.85,5.72,100.7,
ASN00010612,NAREMBEEN,N,-32.0656,118.3956,276.0,0.0,0.03,0.05,66.67,0.14,0.29,107.14,2.75,5.88,113.82,
ASN00010614,NARROGIN,N,-32.9342,117.1797,338.0,9.0,0.08,0.16,100.0,1.28,1.95,52.34,21.68,23.98,10.61,
ASN00010622,ONGERUP,N,-33.9644,118.4889,286.0,0.0,0.02,0.04,100.0,0.07,0.13,85.71,0.9,1.9,111.11,
ASN00010626,PINGELLY,N,-32.5336,117.0831,297.0,0.0,0.04,0.1,150.0,0.24,0.52,116.67,4.61,8.46,83.51,
ASN00010633,RAVENSTHORPE,N,-33.5803,120.0458,232.0,0.0,0.01,0.01,0.0,0.08,0.17,112.5,1.45,2.98,105.52,
ASN00010647,WAGIN,N,-33.3075,117.3403,256.0,0.0,0.03,0.09,200.0,0.47,0.95,102.13,10.49,15.72,49.86,
ASN00010648,WANDERING_COMPARISON,N,-32.6814,116.6756,280.0,0.0,0.02,0.07,250.0,0.04,0.17,325.0,0.36,1.84,411.11,
ASN00010692,NEWDEGATE_RESEARCH_STATION,N,-33.1131,118.84,320.0,0.0,0.01,0.03,200.0,0.01,0.03,200.0,0.01,0.19,1800.0,
ASN00010905,JACUP,N,-33.8878,119.1092,305.0,0.0,0.01,0.02,100.0,0.02,0.03,50.0,0.12,0.21,75.0,
ASN00010911,LAKE_GRACE,N,-33.1006,118.4647,286.0,0.0,0.02,0.04,100.0,0.15,0.33,120.0,2.94,6.16,109.52,
ASN00010916,KATANNING,N,-33.6856,117.6064,320.0,0.0,0.06,0.13,116.67,0.71,1.11,56.34,0.07,0.46,557.14,
ASN00010917,WANDERING,N,-32.6722,116.6706,275.0,0.0,0.02,0.06,200.0,0.04,0.15,275.0,0.19,0.84,342.11,
ASN00011003,EUCLA,N,-31.6797,128.8792,93.1,0.0,0.0,0.0,0.0,0.01,0.04,300.0,0.22,0.8,263.64,
ASN00011004,FORREST_AERO,N,-30.8389,128.1139,156.0,0.0,0.0,0.0,0.0,0.0,0.01,0.0,0.04,0.08,100.0,
ASN00011013,RAWLINNA,N,-31.0119,125.3294,182.0,0.0,0.0,0.0,0.0,0.0,0.01,0.0,0.06,0.35,483.33,
ASN00011017,BALLADONIA,N,-32.4569,123.8653,151.0,0.0,0.0,0.0,0.0,0.01,0.02,100.0,0.04,0.31,675.0,
ASN00011019,EYRE,N,-32.2464,126.3008,5.6,0.0,0.0,0.0,0.0,0.0,0.0,0.0,0.06,0.09,50.0,
ASN00011045,BALGAIR,N,-31.09,125.6589,162.0,0.0,0.0,0.0,0.0,0.0,0.0,0.0,0.01,0.01,0.0,
ASN00011052,FORREST,N,-30.8453,128.1092,159.0,0.0,0.0,0.0,0.0,0.0,0.01,0.0,0.1,0.14,40.0,
ASN00011053,RED_ROCKS_POINT,N,-32.2028,127.5297,3.1,0.0,0.0,0.0,0.0,0.0,0.0,0.0,0.0,0.0,0.0,
ASN00012008,BOOYLGOO_SPRING,N,-27.7556,119.9078,610.0,0.0,0.0,0.0,0.0,0.0,0.01,0.0,0.1,0.14,40.0,
ASN00012009,NORSEMAN_AERO,N,-32.2147,121.7547,262.5,0.0,0.0,0.01,0.0,0.08,0.3,275.0,0.01,0.02,100.0,
ASN00012022,CASHMERE_DOWNS,N,-28.97,119.5686,450.0,0.0,0.0,0.0,0.0,0.01,0.01,0.0,0.15,0.16,6.67,
ASN00012038,KALGOORLIE_BOULDER_AIRPORT,N,-30.7847,121.4533,365.3,20.0,0.17,0.31,82.35,3.55,6.21,74.93,0.85,8.06,848.24,
ASN00012039,KALGOORLIE_POST_OFFICE,N,-30.75,121.4667,361.0,27.0,0.17,0.31,82.35,4.18,7.27,73.92,26.32,30.6,16.26,
ASN00012044,MUNGLINUP_WEST,N,-33.5547,120.6997,220.0,0.0,0.0,0.01,0.0,0.0,0.01,0.0,0.0,0.07,0.0,
ASN00012045,LAVERTON,N,-28.6306,122.4072,461.0,0.0,0.0,0.01,0.0,0.02,0.19,850.0,0.22,3.88,1663.64,
ASN00012046,LEONORA,N,-28.8836,121.3303,376.0,7.0,0.0,0.01,0.0,0.04,0.28,600.0,0.23,5.42,2256.52,
ASN00012052,MENZIES,N,-29.6939,121.0297,425.9,0.0,0.0,0.0,0.0,0.01,0.03,200.0,0.07,0.72,928.57,
ASN00012065,NORSEMAN,N,-32.1981,121.7794,277.0,9.0,0.0,0.01,0.0,0.08,0.29,262.5,1.52,5.85,284.87,
ASN00012071,SALMON_GUMS_RESSTN,N,-32.9869,121.6239,249.0,0.0,0.0,0.01,0.0,0.02,0.06,200.0,0.07,0.08,14.29,
ASN00012074,SOUTHERN_CROSS,N,-31.2319,119.3281,355.0,0.0,0.01,0.03,200.0,0.21,0.4,90.48,3.98,6.22,56.28,
ASN00012090,YEELIRRIE,N,-27.2842,120.0931,487.0,0.0,0.0,0.0,0.0,0.0,0.0,0.0,0.03,0.04,33.33,
ASN00012219,YAMARNA,N,-28.1664,123.6556,441.6,0.0,0.0,0.0,0.0,0.0,0.0,0.0,0.07,0.08,14.29,
ASN00012239,BULGA_DOWNS,N,-28.4967,119.7436,438.5,0.0,0.0,0.0,0.0,0.0,0.0,0.0,0.07,0.09,28.57,
ASN00012241,LEONORA_AERO,N,-28.8789,121.3186,370.0,0.0,0.0,0.01,0.0,0.03,0.28,833.33,0.19,1.22,542.11,
ASN00012242,DIEMALS,N,-29.6694,119.3031,434.0,0.0,0.0,0.0,0.0,0.0,0.0,0.0,0.0,0.0,0.0,
ASN00012281,MUNGLINUP_MELALEUCA,N,-33.5969,120.7578,210.0,0.0,0.0,0.01,0.0,0.01,0.02,100.0,0.04,0.23,475.0,
ASN00012305,LAVERTON_AERO,N,-28.6133,122.4236,464.3,0.0,0.0,0.01,0.0,0.02,0.19,850.0,0.02,0.02,0.0,
ASN00012314,LEINSTER_AERO,N,-27.8386,120.7031,497.0,0.0,0.0,0.01,0.0,0.01,0.05,400.0,0.06,0.25,316.67,
ASN00012320,SOUTHERN_CROSS_AIRFIELD,N,-31.2353,119.3564,347.4,0.0,0.01,0.03,200.0,0.21,0.42,100.0,0.07,0.13,85.71,
ASN00013007,BALGO_HILLS,N,-20.1417,127.9867,420.0,0.0,0.0,0.0,0.0,0.0,0.08,0.0,0.07,1.88,2585.71,
ASN00013011,WARBURTON_AIRFIELD,N,-26.1317,126.5839,459.0,0.0,0.0,0.01,0.0,0.01,0.13,1200.0,0.33,2.89,775.76,
ASN00013012,WILUNA,N,-26.5914,120.225,521.0,0.0,0.0,0.01,0.0,0.01,0.17,1600.0,0.08,2.71,3287.5,
ASN00013015,CARNEGIE,N,-25.7964,122.9753,448.0,0.0,0.0,0.0,0.0,0.01,0.01,0.0,0.14,0.14,0.0,
ASN00013017,GILES_METEOROLOGICAL_OFFICE,N,-25.0341,128.301,598.0,0.0,0.0,0.0,0.0,0.0,0.05,0.0,0.03,0.28,833.33,
ASN00013030,TELFER_AERO,N,-21.7125,122.2281,291.9,18.0,0.0,0.01,0.0,0.04,0.14,250.0,0.08,1.02,1175.0,
ASN00014008,CAPE_DON,N,-11.3167,131.7667,19.0,0.0,0.0,0.0,0.0,0.0,0.0,0.0,0.03,0.06,100.0,
ASN00014011,MINJILANG,N,-11.1456,132.5688,35.0,0.0,0.0,0.0,0.0,0.03,0.07,133.33,0.19,0.73,284.21,
ASN00014015,DARWIN_AIRPORT,N,-12.4239,130.8925,30.4,17.0,0.36,1.3,261.11,3.83,9.26,141.78,8.15,11.19,37.3,
ASN00014016,DARWIN_POST_OFFICE,N,-12.4,130.8,24.4,0.0,0.34,1.1,223.53,0.33,1.1,233.33,0.0,0.0,0.0,
ASN00014040,DARWIN_AIRPORT_COMPARISON,N,-12.4227,130.8844,30.0,22.0,0.36,1.28,255.56,4.66,10.85,132.83,12.85,16.34,27.16,
ASN00014041,MIDDLE_POINT_AWS,N,-12.605,131.2988,14.1,0.0,0.02,0.23,1050.0,0.02,0.12,500.0,0.03,0.17,466.67,
ASN00014042,OENPELLI,N,-12.3263,133.0581,6.7,0.0,0.0,0.01,0.0,0.04,0.19,375.0,0.83,4.42,432.53,
ASN00014090,MIDDLE_POINT,N,-12.5781,131.3145,10.0,0.0,0.02,0.18,800.0,0.01,0.07,600.0,0.05,0.9,1700.0,
ASN00014142,PIRLANGIMPI,N,-11.4022,130.4217,18.3,0.0,0.0,0.01,0.0,0.05,0.13,160.0,0.9,1.94,115.56,
ASN00014153,BLACK_POINT,N,-11.1538,132.143,5.0,0.0,0.0,0.0,0.0,0.0,0.0,0.0,0.03,0.1,233.33,
ASN00014198,JABIRU_AIRPORT,N,-12.6594,132.8939,26.5,0.0,0.0,0.02,0.0,0.02,0.15,650.0,0.05,0.49,880.0,
ASN00014253,CHANNEL_POINT,N,-13.1672,130.1225,3.0,0.0,0.0,0.0,0.0,0.0,0.02,0.0,0.0,0.51,0.0,
ASN00014272,BATCHELOR_AERO,N,-13.0545,131.0252,104.0,0.0,0.01,0.04,300.0,0.04,0.21,425.0,0.39,2.63,574.36,
ASN00014274,MCCLUER_ISLAND,N,-11.0468,132.9791,1.4,0.0,0.0,0.0,0.0,0.0,0.0,0.0,0.0,0.0,0.0,
ASN00014277,DUM_IN_MIRRIE_AWS,N,-12.635,130.3725,3.5,0.0,0.0,0.02,0.0,0.0,0.0,0.0,0.0,0.04,0.0,
ASN00014400,MANINGRIDA,N,-12.0482,134.2263,11.0,0.0,0.0,0.01,0.0,0.03,0.31,933.33,0.65,5.17,695.38,
ASN00014401,WARRUWI,N,-11.6502,133.3796,19.2,0.0,0.0,0.0,0.0,0.03,0.09,200.0,0.24,0.96,300.0,
ASN00014402,MILINGIMBI,N,-12.1239,134.9078,4.0,0.0,0.0,0.01,0.0,0.01,0.15,1400.0,0.01,0.02,100.0,
ASN00014404,MILINGIMBI_AWS,N,-12.0931,134.8919,15.0,0.0,0.0,0.01,0.0,0.01,0.15,1400.0,0.02,0.16,700.0,
ASN00014405,MANINGRIDA_AERO,N,-12.0569,134.2339,28.1,0.0,0.0,0.01,0.0,0.03,0.31,933.33,0.31,5.03,1522.58,
ASN00014502,YIRRKALA_MISSION,N,-12.25,136.8833,9.4,0.0,0.02,0.07,250.0,0.02,0.16,700.0,0.08,2.01,2412.5,
ASN00014504,GALIWINKU,N,-12.028,135.5648,18.0,0.0,0.0,0.01,0.0,0.05,0.28,460.0,0.91,5.13,463.74,
ASN00014506,ANGURUGU,N,-13.9833,136.4333,14.0,9.0,0.01,0.02,100.0,0.07,0.2,185.71,0.83,0.97,16.87,
ASN00014507,ALYANGULA_POLICE,N,-13.8483,136.4198,20.0,8.0,0.01,0.02,100.0,0.11,0.31,181.82,1.14,4.88,328.07,
ASN00014508,GOVE_AIRPORT,N,-12.2741,136.8203,51.6,0.0,0.02,0.07,250.0,0.04,0.07,75.0,0.04,0.32,700.0,
ASN00014512,NHULUNBUY_DTW,N,-12.1939,136.7637,20.0,0.0,0.02,0.07,250.0,0.31,0.99,219.35,1.73,3.37,94.8,
ASN00014517,NGAYAWILI,N,-11.9971,135.5726,8.1,0.0,0.0,0.01,0.0,0.04,0.27,575.0,0.05,0.06,20.0,
ASN00014518,GROOTE_EYLANDT_AIRPORT_AWS,N,-13.9747,136.4631,13.7,11.0,0.01,0.02,100.0,0.07,0.2,185.71,0.31,1.98,538.71,
ASN00014612,LARRIMAH,N,-15.5748,133.2138,180.0,0.0,0.0,0.0,0.0,0.0,0.03,0.0,0.02,0.64,3100.0,
ASN00014618,DALY_WATERS,N,-16.253,133.37,211.8,0.0,0.0,0.0,0.0,0.0,0.02,0.0,0.05,0.38,660.0,
ASN00014626,DALY_WATERS_AWS,N,-16.2636,133.3782,209.8,0.0,0.0,0.0,0.0,0.0,0.03,0.0,0.03,0.14,366.67,
ASN00014627,BULMAN_AWS,N,-13.6714,134.3414,103.4,0.0,0.0,0.0,0.0,0.01,0.02,100.0,0.02,0.17,750.0,
ASN00014633,ROPER_BAR_STORE,N,-14.7356,134.5291,18.0,0.0,0.0,0.01,0.0,0.0,0.02,0.0,0.02,0.13,550.0,
ASN00014703,CENTRE_ISLAND,N,-15.7426,136.8192,12.2,0.0,0.0,0.0,0.0,0.0,0.0,0.0,0.0,0.0,0.0,
ASN00014704,MCARTHUR_RIVER_MINE,N,-16.4423,136.076,40.0,0.0,0.0,0.0,0.0,0.01,0.07,600.0,0.19,1.05,452.63,
ASN00014707,WOLLOGORANG,N,-17.2122,137.9462,60.0,0.0,0.0,0.0,0.0,0.0,0.01,0.0,0.1,0.11,10.0,
ASN00014723,BORROLOOLA,N,-16.0757,136.3041,16.1,0.0,0.0,0.01,0.0,0.04,0.15,275.0,0.13,0.47,261.54,
ASN00014825,VICTORIA_RIVER_DOWNS,N,-16.403,131.0145,88.5,0.0,0.0,0.0,0.0,0.01,0.02,100.0,0.17,0.42,147.06,
ASN00014829,LAJAMANU,N,-18.3325,130.6358,315.6,0.0,0.0,0.0,0.0,0.02,0.09,350.0,0.55,2.16,292.73,
ASN00014840,WAVE_HILL,N,-17.3871,131.1166,196.0,0.0,0.0,0.0,0.0,0.0,0.01,0.0,0.01,0.2,1900.0,
ASN00014847,KIDMAN_SPRINGS,N,-16.1176,130.9558,100.0,0.0,0.0,0.0,0.0,0.0,0.0,0.0,0.01,0.01,0.0,
ASN00014850,TIMBER_CREEK,N,-15.6614,130.4808,20.1,0.0,0.0,0.01,0.0,0.03,0.09,200.0,0.11,0.38,245.45,
ASN00014901,DOUGLAS_RIVER,N,-13.8345,131.1872,42.8,0.0,0.0,0.01,0.0,0.0,0.02,0.0,0.06,0.4,566.67,
ASN00014902,KATHERINE_COUNCIL,N,-14.4589,132.2572,106.9,10.0,0.07,0.17,142.86,1.29,2.5,93.8,4.41,7.08,60.54,
ASN00014903,KATHERINE_AVIATION_MUSEUM,N,-14.4437,132.2737,108.0,9.0,0.07,0.17,142.86,1.24,2.32,87.1,2.2,4.34,97.27,
ASN00014904,KATHERINE_EXP_FARM,N,-14.4833,132.25,120.1,11.0,0.07,0.17,142.86,1.26,2.35,86.51,3.65,6.51,78.36,
ASN00014905,PORT_KEATS_POLICE,N,-14.2403,129.5215,11.0,0.0,0.0,0.01,0.0,0.03,0.24,700.0,0.57,4.61,708.77,
ASN00014909,CENTRAL_ARNHEM_PLATEAU,N,-13.3275,133.0861,416.0,0.0,0.0,0.0,0.0,0.0,0.0,0.0,0.0,0.0,0.0,
ASN00014932,TINDAL_RAAF,N,-14.5229,132.3826,133.6,0.0,0.07,0.16,128.57,0.19,0.56,194.74,0.14,1.18,742.86,
ASN00014938,MANGO_FARM,N,-13.7379,130.6834,15.2,0.0,0.0,0.01,0.0,0.03,0.16,433.33,0.03,0.03,0.0,
ASN00014948,PORT_KEATS_AERO,N,-14.2495,129.5282,28.0,0.0,0.0,0.01,0.0,0.03,0.24,700.0,0.13,2.37,1723.08,
ASN00014949,DELAMERE_WEAPONS_RANGE,N,-15.7442,131.9182,221.0,0.0,0.0,0.0,0.0,0.0,0.01,0.0,0.02,0.13,550.0,
ASN00014954,BRADSHAW,N,-14.9408,130.8092,75.0,0.0,0.0,0.0,0.0,0.0,0.0,0.0,0.0,0.0,0.0,
ASN00015034,WONARAH,N,-19.8983,136.3358,240.0,0.0,0.0,0.0,0.0,0.0,0.0,0.0,0.0,0.0,0.0,
ASN00015085,BRUNETTE_DOWNS,N,-18.637,135.945,218.0,0.0,0.0,0.0,0.0,0.01,0.02,100.0,0.17,0.56,229.41,
ASN00015087,TENNANT_CREEK_POST_OFFICE,N,-19.6475,134.1896,376.5,11.0,0.02,0.04,100.0,0.55,0.81,47.27,12.39,15.93,28.57,
ASN00015089,NEWCASTLE_WATERS_POST_OFFICE,N,-17.3833,133.4,210.0,0.0,0.0,0.01,0.0,0.01,0.03,200.0,0.01,0.18,1700.0,
ASN00015131,ELLIOTT,N,-17.5521,133.5407,220.0,0.0,0.0,0.01,0.0,0.01,0.1,900.0,0.21,2.07,885.71,
ASN00015135,TENNANT_CREEK_AIRPORT,N,-19.6423,134.1833,375.7,11.0,0.02,0.04,100.0,0.55,0.81,47.27,6.43,7.77,20.84,
ASN00015502,ALI_CURUNG,N,-21.0025,134.4029,375.0,0.0,0.0,0.0,0.0,0.02,0.07,250.0,0.61,1.67,173.77,
ASN00015511,CURTIN_SPRINGS,N,-25.3139,131.7571,489.6,0.0,0.0,0.0,0.0,0.0,0.01,0.0,0.01,0.3,2900.0,
ASN00015525,BARROW_CREEK,N,-21.5317,133.8901,510.5,0.0,0.0,0.0,0.0,0.0,0.01,0.0,0.0,0.13,0.0,
ASN00015526,FINKE_POST_OFFICE,N,-25.5833,134.5667,267.0,0.0,0.0,0.0,0.0,0.01,0.04,300.0,0.01,0.17,1600.0,
ASN00015527,AYERS_ROCK,N,-25.34,131.0583,526.0,0.0,0.0,0.01,0.0,0.01,0.06,500.0,0.13,0.38,192.31,
ASN00015528,YUENDUMU,N,-22.2562,131.8017,667.0,0.0,0.0,0.0,0.0,0.02,0.12,500.0,0.43,2.82,555.81,
ASN00015540,ALICE_SPRINGS_POST_OFFICE,N,-23.71,133.8683,580.0,27.0,0.13,0.24,84.62,2.97,5.21,75.42,15.42,22.46,45.65,
ASN00015546,RINGWOOD,N,-23.8289,134.9555,416.0,0.0,0.0,0.0,0.0,0.0,0.0,0.0,0.07,0.09,28.57,
ASN00015548,RABBIT_FLAT,N,-20.1883,130.0161,340.0,0.0,0.0,0.0,0.0,0.0,0.0,0.0,0.01,0.02,100.0,
ASN00015590,ALICE_SPRINGS_AIRPORT,N,-23.7951,133.889,546.0,0.0,0.13,0.24,84.62,0.11,0.44,300.0,0.23,0.63,173.91,
ASN00015594,ARLTUNGA,N,-23.4564,134.6849,661.0,0.0,0.0,0.0,0.0,0.0,0.0,0.0,0.05,0.07,40.0,
ASN00015602,JERVOIS,N,-22.9494,136.1442,328.0,0.0,0.0,0.0,0.0,0.0,0.01,0.0,0.04,0.11,175.0,
ASN00015603,KULGERA,N,-25.8428,133.3027,508.6,0.0,0.0,0.0,0.0,0.0,0.01,0.0,0.04,0.26,550.0,
ASN00015635,YULARA_AERO,N,-25.1896,130.9737,492.0,0.0,0.0,0.01,0.0,0.02,0.05,150.0,0.03,0.13,333.33,
ASN00015643,TERRITORY_GRAPE_FARM,N,-22.4518,133.6377,565.6,0.0,0.0,0.0,0.0,0.01,0.01,0.0,0.17,0.24,41.18,
ASN00015652,WATARRKA,N,-24.2914,131.5488,614.0,0.0,0.0,0.0,0.0,0.01,0.03,200.0,0.06,0.11,83.33,
ASN00015664,WALUNGURRU,N,-23.27,129.38,454.3,0.0,0.0,0.0,0.0,0.0,0.07,0.0,0.09,1.36,1411.11,
ASN00015666,RABBIT_FLAT,N,-20.1824,130.0148,340.0,0.0,0.0,0.0,0.0,0.0,0.0,0.0,0.01,0.02,100.0,
ASN00016001,WOOMERA_AERODROME,N,-31.1558,136.8054,166.6,0.0,0.0,0.01,0.0,0.07,0.22,214.29,0.09,0.64,611.11,
ASN00016007,COOBER_PEDY,N,-29.004,134.7564,215.0,9.0,0.0,0.03,0.0,0.07,0.75,971.43,0.71,9.48,1235.21,
ASN00016013,ERNABELLA,N,-26.2925,132.1283,676.0,0.0,0.0,0.01,0.0,0.01,0.08,700.0,0.14,0.54,285.71,
ASN00016032,NONNING,N,-32.5226,136.4926,200.0,0.0,0.0,0.0,0.0,0.0,0.01,0.0,0.03,0.21,600.0,
ASN00016044,TARCOOLA,N,-30.7111,134.5694,119.5,0.0,0.0,0.0,0.0,0.0,0.01,0.0,0.01,0.16,1500.0,
ASN00016056,YUDNAPINNA,N,-32.1232,137.1505,128.0,0.0,0.0,0.0,0.0,0.0,0.0,0.0,0.04,0.06,50.0,
ASN00016065,ANDAMOOKA,N,-30.449,137.1692,76.0,0.0,0.0,0.04,0.0,0.04,0.89,2125.0,0.27,8.59,3081.48,
ASN00016085,MARLA_POLICE_STATION,N,-27.3002,133.6201,323.0,0.0,0.0,0.0,0.0,0.01,0.08,700.0,0.1,1.8,1700.0,
ASN00016090,COOBER_PEDY_AIRPORT,N,-29.0347,134.7222,225.0,0.0,0.0,0.03,0.0,0.06,0.72,1100.0,0.01,0.01,0.0,
ASN00016096,ROXBY_DOWNS_OLYMPIC_DAM_AEROD,N,-30.4829,136.8772,98.5,0.0,0.01,0.04,300.0,0.1,0.4,300.0,0.22,1.57,613.64,
ASN00016097,ERNABELLA_PUKATJA,N,-26.2635,132.1771,703.2,0.0,0.0,0.01,0.0,0.01,0.08,700.0,0.0,0.0,0.0,
ASN00016098,TARCOOLA_AERO,N,-30.7051,134.5786,123.0,0.0,0.0,0.0,0.0,0.0,0.01,0.0,0.0,0.05,0.0,
ASN00017005,LEIGH_CREEK_AERO,N,-30.4667,138.4075,194.0,0.0,0.01,0.01,0.0,0.0,0.02,0.0,0.0,0.0,0.0,
ASN00017024,MARREE_FARINA,N,-30.066,138.2739,91.0,0.0,0.0,0.0,0.0,0.0,0.0,0.0,0.04,0.05,25.0,
ASN00017031,MARREE_COMPARISON,N,-29.6481,138.0637,50.0,0.0,0.0,0.0,0.0,0.02,0.05,150.0,0.44,1.16,163.64,
ASN00017043,OODNADATTA_AIRPORT,N,-27.5553,135.4456,116.5,0.0,0.0,0.0,0.0,0.01,0.07,600.0,0.05,1.11,2120.0,
ASN00017096,MOOMBA,N,-28.1125,140.2102,39.0,20.0,0.0,0.01,0.0,0.02,0.15,650.0,0.36,2.66,638.89,
ASN00017099,ARKAROOLA,N,-30.311,139.3357,318.0,0.0,0.0,0.0,0.0,0.0,0.01,0.0,0.08,0.23,187.5,
ASN00017110,LEIGH_CREEK_AIRPORT,N,-30.5963,138.4219,258.8,0.0,0.01,0.01,0.0,0.12,0.17,41.67,0.01,0.01,0.0,
ASN00017123,MOOMBA_AIRPORT,N,-28.0997,140.1956,37.8,17.0,0.0,0.01,0.0,0.02,0.15,650.0,0.11,1.4,1172.73,
ASN00017126,MARREE_AERO,N,-29.6587,138.0684,50.0,0.0,0.0,0.0,0.0,0.02,0.05,150.0,0.11,0.19,72.73,
ASN00018011,CEDUNA_POST_OFFICE,N,-32.1267,133.6725,10.0,8.0,0.03,0.06,100.0,0.5,1.09,118.0,6.34,10.16,60.25,
ASN00018012,CEDUNA_AMO,N,-32.1297,133.6976,15.3,8.0,0.03,0.06,100.0,0.49,1.08,120.41,0.25,1.25,400.0,
ASN00018014,CLEVE,N,-33.7011,136.4937,193.0,0.0,0.03,0.06,100.0,0.21,0.5,138.1,4.43,8.18,84.65,
ASN00018030,FOWLERS_BAY,N,-31.99,132.4372,3.0,0.0,0.0,0.0,0.0,0.0,0.03,0.0,0.0,0.7,0.0,
ASN00018040,KIMBA,N,-33.1414,136.4125,280.0,0.0,0.02,0.04,100.0,0.24,0.51,112.5,5.0,8.98,79.6,
ASN00018044,KYANCUTTA,N,-33.1332,135.5552,57.0,0.0,0.02,0.05,150.0,0.02,0.06,200.0,0.21,0.92,338.1,
ASN00018052,MINNIPA_AGRICULTURAL_CENTRE,N,-32.8361,135.15,168.0,0.0,0.01,0.02,100.0,0.07,0.17,142.86,0.04,0.45,1025.0,
ASN00018069,ELLISTON,N,-33.6501,134.888,7.0,0.0,0.0,0.02,0.0,0.04,0.26,550.0,0.81,3.95,387.65,
ASN00018070,PORT_LINCOLN,N,-34.7225,135.8558,4.0,18.0,0.11,0.24,118.18,2.43,4.79,97.12,19.01,24.85,30.72,
ASN00018079,STREAKY_BAY,N,-32.7963,134.2116,13.0,6.0,0.02,0.04,100.0,0.31,0.77,148.39,5.23,9.82,87.76,
ASN00018083,WUDINNA_AERO,N,-33.043,135.4519,86.4,0.0,0.02,0.05,150.0,0.15,0.47,213.33,1.52,4.45,192.76,
ASN00018103,WHYALLA_NORRIE,N,-33.0303,137.5328,13.1,19.0,0.17,0.28,64.71,4.14,5.71,37.92,20.59,24.77,20.3,
ASN00018106,NULLARBOR,N,-31.4492,130.8976,64.0,0.0,0.0,0.0,0.0,0.0,0.01,0.0,0.04,0.31,675.0,
ASN00018110,COOK,N,-30.6143,130.4136,120.0,0.0,0.0,0.0,0.0,0.01,0.03,200.0,0.23,0.6,160.87,
ASN00018115,NEPTUNE_ISLAND,N,-35.3365,136.1174,32.0,0.0,0.0,0.0,0.0,0.0,0.0,0.0,0.0,0.0,0.0,
ASN00018116,CLEVE_AERODROME,N,-33.7081,136.5026,175.0,0.0,0.03,0.06,100.0,0.21,0.5,138.1,3.2,5.46,70.62,
ASN00018120,WHYALLA_AERO,N,-33.0539,137.5205,6.5,10.0,0.17,0.28,64.71,3.71,4.7,26.68,0.09,0.97,977.78,
ASN00018139,POLDA_GUM_VIEW,N,-33.5085,135.2928,37.0,0.0,0.0,0.0,0.0,0.01,0.01,0.0,0.07,0.15,114.29,
ASN00018181,PORT_LINCOLN_TOD_RIVER,N,-34.4906,135.8511,95.0,0.0,0.05,0.14,180.0,0.02,0.07,250.0,0.03,0.19,533.33,
ASN00018191,COULTA_COLES_POINT,N,-34.3749,135.3741,28.0,0.0,0.01,0.03,200.0,0.0,0.0,0.0,0.02,0.03,50.0,
ASN00018192,NORTH_SHIELDS_PORT_LINCOLN_AW,N,-34.5993,135.8784,8.5,0.0,0.13,0.27,107.69,0.06,0.26,333.33,0.1,0.91,810.0,
ASN00018195,MINNIPA_DPI,N,-32.8427,135.1515,165.0,0.0,0.01,0.02,100.0,0.07,0.17,142.86,0.08,0.58,625.0,
ASN00018201,PORT_AUGUSTA_AERO,N,-32.5091,137.7144,14.0,0.0,0.11,0.18,63.64,0.84,1.31,55.95,0.0,0.28,0.0,
ASN00019017,HAWKER,N,-31.8846,138.435,315.0,0.0,0.0,0.01,0.0,0.09,0.14,55.56,0.98,1.47,50.0,
ASN00019036,PORT_AUGUSTA_POST_OFFICE,N,-32.5,137.7667,5.0,18.0,0.11,0.19,72.73,2.25,3.34,48.44,12.83,15.2,18.47,
ASN00019062,YONGALA,N,-33.0287,138.7489,512.0,0.0,0.05,0.12,140.0,0.02,0.1,400.0,0.31,1.47,374.19,
ASN00019066,PORT_AUGUSTA_POWER_STATION,N,-32.528,137.79,7.0,19.0,0.13,0.21,61.54,1.99,2.99,50.25,0.01,0.03,200.0,
ASN00020026,YUNTA,N,-32.5819,139.5611,303.0,0.0,0.0,0.0,0.0,0.02,0.05,150.0,0.47,1.1,134.04,
ASN00020028,GLUEPOT_RESERVE_GLUEPOT,N,-33.7622,140.1251,55.0,0.0,0.0,0.0,0.0,0.01,0.01,0.0,0.18,0.22,22.22,
ASN00020062,YUNTA_AIRSTRIP,N,-32.5707,139.5645,300.0,0.0,0.0,0.0,0.0,0.02,0.05,150.0,0.08,0.25,212.5,
ASN00021014,CLARE_POST_OFFICE,N,-33.8364,138.6125,385.0,0.0,0.06,0.22,266.67,0.66,1.81,174.24,11.54,18.69,61.96,
ASN00021020,GEORGETOWN,N,-33.359,138.393,273.0,0.0,0.08,0.19,137.5,0.05,0.18,260.0,0.91,1.89,107.69,
ASN00021043,PORT_PIRIE_NYRSTAR_COMPARISON,N,-33.1708,138.0104,4.0,20.0,0.18,0.3,66.67,3.41,4.41,29.33,11.09,13.42,21.01,
ASN00021046,SNOWTOWN,N,-33.7844,138.2133,103.0,0.0,0.03,0.1,233.33,0.16,0.3,87.5,3.49,5.04,44.41,
ASN00021131,CLARE_HIGH_SCHOOL,N,-33.8226,138.5933,395.0,0.0,0.06,0.21,250.0,0.66,1.78,169.7,1.05,5.53,426.67,
ASN00021133,SNOWTOWN_RAYVILLE_PARK,N,-33.7676,138.2182,109.1,0.0,0.03,0.1,233.33,0.16,0.29,81.25,0.01,0.24,2300.0,
ASN00022006,KADINA,N,-33.9551,137.6953,44.0,0.0,0.1,0.28,180.0,0.82,1.97,140.24,4.57,11.27,146.61,
ASN00022008,MAITLAND,N,-34.3745,137.6733,185.0,0.0,0.05,0.16,220.0,0.3,0.58,93.33,6.7,10.93,63.13,
ASN00022015,PRICE,N,-34.2971,138.0014,2.0,0.0,0.04,0.14,250.0,0.06,0.17,183.33,0.33,1.11,236.36,
ASN00022018,WAROOKA,N,-34.9906,137.3995,53.0,0.0,0.04,0.09,125.0,0.16,0.27,68.75,1.75,2.91,66.29,
ASN00022029,ALTHORPE_ISLAND,N,-35.3725,136.8594,80.0,0.0,0.0,0.01,0.0,0.0,0.0,0.0,0.0,0.01,0.0,
ASN00022030,TROUBRIDGE_SHOAL_LIGHTHOUSE,N,-35.1167,137.8333,3.0,0.0,0.03,0.07,133.33,0.0,0.0,0.0,0.0,0.01,0.0,
ASN00022031,MINLATON_AERO,N,-34.748,137.5276,32.0,0.0,0.03,0.11,266.67,0.03,0.14,366.67,0.04,0.16,300.0,
ASN00022046,EDITHBURGH,N,-35.1121,137.7395,6.0,0.0,0.03,0.08,166.67,0.16,0.42,162.5,0.04,0.19,375.0,
ASN00022049,STENHOUSE_BAY,N,-35.2795,136.9392,42.0,0.0,0.0,0.01,0.0,0.01,0.18,1700.0,0.07,0.24,242.86,
ASN00022050,KADINA_AWS,N,-33.9703,137.6628,41.1,0.0,0.1,0.28,180.0,1.16,2.37,104.31,0.06,0.08,33.33,
ASN00022801,CAPE_BORDA_COMPARISON,N,-35.7529,136.5938,143.0,0.0,0.0,0.0,0.0,0.0,0.0,0.0,0.07,0.08,14.29,
ASN00022802,CAPE_DE_COUEDIC,N,-36.0667,136.7,75.0,0.0,0.0,0.0,0.0,0.0,0.0,0.0,0.0,0.0,0.0,
ASN00022803,CAPE_WILLOUGHBY,N,-35.8426,138.1327,55.0,0.0,0.01,0.01,0.0,0.01,0.01,0.0,0.1,0.14,40.0,
ASN00022807,KINGSCOTE,N,-35.6569,137.6364,20.0,0.0,0.04,0.08,100.0,0.45,0.84,86.67,8.26,11.8,42.86,
ASN00022814,PARNDANA_EAST_RESEARCH_STATION,N,-35.8,137.3333,155.0,0.0,0.03,0.06,100.0,0.02,0.06,200.0,0.03,0.53,1666.67,
ASN00022823,CAPE_BORDA,N,-35.7549,136.5959,158.0,0.0,0.0,0.0,0.0,0.0,0.0,0.0,0.07,0.08,14.29,
ASN00022841,KINGSCOTE_AERO,N,-35.7114,137.5231,5.0,0.0,0.04,0.08,100.0,0.04,0.12,200.0,0.07,0.33,371.43,
ASN00023000,ADELAIDE_WEST_TERRACE,N,-34.9254,138.5869,40.0,73.0,5.61,7.67,36.72,29.66,32.38,9.17,19.12,21.81,14.07,
ASN00023013,PARAFIELD_AIRPORT,N,-34.7977,138.6281,9.5,33.0,5.13,7.39,44.05,15.53,22.77,46.62,3.16,6.37,101.58,
ASN00023015,PENFIELD_WEAPONS_RESEARCH,N,-34.7333,138.65,24.0,33.0,4.31,6.4,48.49,12.21,18.72,53.32,9.09,14.37,58.09,
ASN00023020,ROSEWORTHY_AGRIC_COLLEGE,N,-34.5267,138.6883,68.0,0.0,0.62,1.78,187.1,0.13,0.55,323.08,1.57,2.72,73.25,
ASN00023031,ADELAIDE_WAITE_INSTITUTE,N,-34.9697,138.6331,115.0,30.0,5.51,7.62,38.29,14.6,18.34,25.62,12.36,19.42,57.12,
ASN00023034,ADELAIDE_AIRPORT,N,-34.9524,138.5204,2.0,23.0,5.51,7.37,33.76,18.01,20.35,12.99,0.66,4.29,550.0,
ASN00023037,ADELAIDE_PARAFIELD_PLANT_INTR,N,-34.7833,138.6242,16.0,35.0,4.99,7.2,44.29,14.36,21.46,49.44,20.37,27.0,32.55,
ASN00023057,ADELAIDE_NORTHFIELD_RESEARCH,N,-34.8533,138.6517,77.0,43.0,5.34,7.68,43.82,23.21,29.79,28.35,18.42,29.04,57.65,
ASN00023083,EDINBURGH_RAAF,N,-34.7111,138.6222,16.5,15.0,3.96,5.94,50.0,6.56,13.0,98.17,1.43,4.81,236.36,
ASN00023090,ADELAIDE_KENT_TOWN,N,-34.9211,138.6216,48.0,68.0,5.65,7.83,38.58,27.07,30.62,13.11,25.87,29.05,12.29,
ASN00023122,ROSEWORTHY_AWS,N,-34.5106,138.6763,65.0,0.0,0.49,1.58,222.45,0.18,0.5,177.78,0.05,0.46,820.0,
ASN00023307,KAPUNDA,N,-34.3412,138.9155,245.0,0.0,0.19,0.56,194.74,0.53,1.03,94.34,11.26,16.38,45.47,
ASN00023321,NURIOOTPA_COMPARISON,N,-34.4767,139.0047,274.0,13.0,0.26,0.78,200.0,1.88,4.69,149.47,5.75,9.01,56.7,
ASN00023343,ROSEDALE_TURRETFIELD_RESEARCH,N,-34.5519,138.8342,116.0,0.0,0.88,2.16,145.45,0.1,0.52,420.0,0.11,0.64,481.82,
ASN00023373,NURIOOTPA_VITICULTURAL,N,-34.4761,139.0056,275.0,13.0,0.26,0.77,196.15,1.87,4.67,149.73,5.07,8.24,62.52,
ASN00023703,BELAIR_KALYRA,N,-35.0042,138.6147,305.0,28.0,5.25,7.21,37.33,11.49,15.79,37.42,3.94,13.54,243.65,
ASN00023733,MOUNT_BARKER,N,-35.0639,138.8509,360.0,10.0,1.99,3.17,59.3,1.0,4.35,335.0,4.78,11.39,138.28,
ASN00023745,STIRLING,N,-35.0333,138.7167,496.2,0.0,4.98,6.91,38.76,0.22,2.79,1168.18,0.17,2.56,1405.88,
ASN00023747,STRATHALBYN,N,-35.256,138.8901,70.0,0.0,0.13,0.62,376.92,0.62,1.99,220.97,11.28,20.79,84.31,
ASN00023751,VICTOR_HARBOR_COMPARISON,N,-35.555,138.6217,5.0,10.0,0.18,0.48,166.67,1.83,4.55,148.63,12.57,15.68,24.74,
ASN00023763,MOUNT_CRAWFORD_FOREST_HEADQUAR,N,-34.7122,138.9469,395.0,0.0,0.85,1.86,118.82,0.07,0.27,285.71,0.03,0.2,566.67,
ASN00023785,STIRLING_POST_OFFICE,N,-35.0,138.7167,496.0,10.0,5.31,7.39,39.17,0.26,2.97,1042.31,1.29,9.88,665.89,
ASN00023801,LENSWOOD_RESEARCH_CENTRE,N,-34.9482,138.8071,480.0,0.0,4.22,6.12,45.02,0.16,1.17,631.25,0.13,0.68,423.08,
ASN00023804,VICTOR_HARBOR_ENCOUNTER_BAY,N,-35.5544,138.5997,8.0,0.0,0.19,0.5,163.16,1.69,4.13,144.38,4.25,12.98,205.41,
ASN00023842,MOUNT_LOFTY,N,-34.9784,138.7088,685.0,12.0,5.47,7.63,39.49,0.69,3.5,407.25,0.1,1.43,1330.0,
ASN00023849,GOOLWA_HINDMARSH_ISLAND_MARIN,N,-35.5147,138.7989,3.0,0.0,0.18,0.49,172.22,1.27,2.89,127.56,0.32,4.32,1250.0,
ASN00023875,PARAWA_SECOND_VALLEY_FOREST_A,N,-35.5695,138.2864,341.0,0.0,0.04,0.13,225.0,0.03,0.07,133.33,0.06,0.12,100.0,
ASN00023878,MOUNT_CRAWFORD_MT_CRAWFORD_AW,N,-34.7253,138.9273,525.0,0.0,1.35,2.51,85.93,0.05,0.26,420.0,0.0,0.0,0.0,
ASN00023885,NOARLUNGA,N,-35.1586,138.5057,55.0,21.0,2.12,3.29,55.19,8.13,12.69,56.09,10.19,18.57,82.24,
ASN00023887,KUITPO_FOREST_RESERVE,N,-35.1712,138.6783,365.0,0.0,2.03,3.46,70.44,0.07,0.52,642.86,0.01,0.15,1400.0,
ASN00023894,HINDMARSH_ISLAND_AWS,N,-35.5194,138.8177,11.0,0.0,0.18,0.49,172.22,1.21,2.72,124.79,0.02,6.11,30450.0,
ASN00024002,BERRI_IRRIGATION,N,-34.2833,140.6,65.5,11.0,0.17,0.55,223.53,1.0,2.42,142.0,14.96,20.71,38.44,
ASN00024016,RENMARK,N,-34.1711,140.7494,20.0,10.0,0.1,0.35,250.0,1.1,3.42,210.91,12.58,19.71,56.68,
ASN00024023,LOXTON_RESEARCH_CENTRE,N,-34.4333,140.6,66.0,12.0,0.13,0.39,200.0,0.99,2.41,143.43,1.32,4.81,264.39,
ASN00024024,LOXTON_RESEARCH_CENTRE,N,-34.439,140.5978,30.1,0.0,0.12,0.39,225.0,1.0,2.46,146.0,0.8,4.47,458.75,
ASN00024041,WAIKERIE_GOLDEN_HEIGHTS,N,-34.1944,139.9378,65.0,0.0,0.04,0.14,250.0,0.45,1.39,208.89,0.4,2.24,460.0,
ASN00024048,RENMARK_AERO,N,-34.1983,140.6766,31.5,0.0,0.13,0.43,230.77,0.16,1.22,662.5,0.04,0.58,1350.0,
ASN00024511,EUDUNDA,N,-34.1754,139.0847,415.0,0.0,0.05,0.16,220.0,0.22,0.54,145.45,4.37,6.25,43.02,
ASN00024518,MENINGIE,N,-35.6902,139.3375,3.0,0.0,0.02,0.06,200.0,0.19,0.52,173.68,3.32,6.52,96.39,
ASN00024521,MURRAY_BRIDGE_COMPARISON,N,-35.1234,139.2592,33.0,18.0,0.21,0.58,176.19,3.16,6.02,90.51,24.04,30.24,25.79,
ASN00024536,TAILEM_BEND,N,-35.2546,139.4542,21.0,9.0,0.17,0.42,147.06,0.43,1.14,165.12,8.06,13.62,68.98,
ASN00024580,STRATHALBYN_RACECOURSE,N,-35.2836,138.8934,58.0,0.0,0.14,0.57,307.14,0.61,1.87,206.56,0.12,1.6,1233.33,
ASN00024584,MURRAY_BRIDGE_PALLAMANA_AEROD,N,-35.065,139.2273,45.0,0.0,0.22,0.6,172.73,0.12,0.55,358.33,0.04,0.68,1600.0,
ASN00025006,KAROONDA,N,-35.09,139.8972,72.0,0.0,0.02,0.05,150.0,0.11,0.29,163.64,2.07,5.18,150.24,
ASN00025050,CALIPH,N,-34.6345,140.2432,68.0,0.0,0.01,0.03,200.0,0.0,0.02,0.0,0.01,0.18,1700.0,
ASN00025507,KEITH,N,-36.098,140.3556,29.0,0.0,0.04,0.09,125.0,0.39,0.85,117.95,6.9,11.54,67.25,
ASN00025509,LAMEROO_COMPARISON,N,-35.3288,140.5175,99.0,0.0,0.03,0.06,100.0,0.13,0.41,215.38,2.28,7.81,242.54,
ASN00025557,KEITH_MUNKORA,N,-36.1058,140.3273,27.0,0.0,0.04,0.09,125.0,0.39,0.86,120.51,0.21,0.32,52.38,
ASN00025562,LAMEROO_AUSTIN_PLAINS,N,-35.3778,140.5378,110.1,0.0,0.02,0.06,200.0,0.04,0.11,175.0,0.02,0.02,0.0,
ASN00026005,CAPE_NORTHUMBERLAND,N,-38.0573,140.6725,5.0,0.0,0.08,0.24,200.0,0.17,0.67,294.12,0.13,2.85,2092.31,
ASN00026013,KYBYBOLITE_RESEARCH_CENTRE,N,-36.8803,140.9286,95.0,0.0,0.07,0.19,171.43,0.06,0.17,183.33,0.18,0.39,116.67,
ASN00026016,LUCINDALE_POST_OFFICE,N,-36.9731,140.3664,30.0,0.0,0.02,0.06,200.0,0.12,0.3,150.0,1.78,4.01,125.28,
ASN00026019,MOUNT_BURR_FOREST_RESERVE,N,-37.5575,140.4197,65.0,0.0,0.06,0.18,200.0,0.09,0.26,188.89,0.05,0.22,340.0,
ASN00026020,MOUNT_GAMBIER_POST_OFFICE,N,-37.8333,140.7833,65.0,23.0,0.2,0.54,170.0,3.81,7.91,107.61,28.45,33.3,17.05,
ASN00026021,MOUNT_GAMBIER_AERO,N,-37.7473,140.7739,63.0,0.0,0.19,0.5,163.16,0.07,0.46,557.14,0.09,0.97,977.78,
ASN00026023,NARACOORTE,N,-36.9564,140.7402,58.0,0.0,0.07,0.18,157.14,0.99,2.29,131.31,13.42,21.58,60.8,
ASN00026026,ROBE_COMPARISON,N,-37.1628,139.756,3.3,0.0,0.02,0.06,200.0,0.33,0.87,163.64,5.19,10.4,100.39,
ASN00026045,COONAWARRA,N,-37.3,140.8333,59.0,0.0,0.03,0.1,233.33,0.06,0.34,466.67,0.28,1.94,592.86,
ASN00026089,PADTHAWAY,N,-36.5958,140.4864,37.0,0.0,0.03,0.07,133.33,0.08,0.24,200.0,0.24,1.22,408.33,
ASN00026091,COONAWARRA,N,-37.2906,140.8254,57.0,0.0,0.03,0.1,233.33,0.06,0.31,416.67,0.3,1.86,520.0,
ASN00026095,CAPE_JAFFA_THE_LIMESTONE,N,-36.9655,139.7164,17.0,0.0,0.04,0.09,125.0,0.04,0.14,250.0,0.02,0.03,50.0,
ASN00026099,NARACOORTE_AERODROME,N,-36.9813,140.727,49.7,0.0,0.07,0.17,142.86,0.95,2.06,116.84,0.05,0.6,1100.0,
ASN00026100,PADTHAWAY_SOUTH,N,-36.6539,140.5212,35.0,0.0,0.03,0.06,100.0,0.07,0.16,128.57,0.27,0.41,51.85,
ASN00026105,ROBE_AIRFIELD,N,-37.1776,139.8054,3.0,0.0,0.02,0.06,200.0,0.32,0.86,168.75,0.19,0.71,273.68,
ASN00027005,COEN_POST_OFFICE,N,-13.9447,143.2006,199.0,0.0,0.0,0.0,0.0,0.02,0.09,350.0,0.35,2.09,497.14,
ASN00027006,COEN_AIRPORT_EVAP,N,-13.7642,143.1178,160.5,0.0,0.0,0.0,0.0,0.0,0.01,0.0,0.04,0.13,225.0,
ASN00027015,MORETON_TELEGRAPH_STATION,N,-12.4536,142.6389,40.0,0.0,0.0,0.0,0.0,0.0,0.0,0.0,0.04,0.05,25.0,
ASN00027021,THURSDAY_ISLAND_TOWNSHIP,N,-10.5831,142.2203,8.0,0.0,0.01,0.03,200.0,0.22,0.62,181.82,2.83,8.35,195.05,
ASN00027022,THURSDAY_ISLAND_MO,N,-10.5853,142.21,57.6,0.0,0.01,0.03,200.0,0.21,0.61,190.48,2.01,5.41,169.15,
ASN00027042,WEIPA_EASTERN_AVE,N,-12.6267,141.8836,20.0,0.0,0.02,0.05,150.0,0.34,1.02,200.0,5.2,13.31,155.96,
ASN00027045,WEIPA_AERO,N,-12.6778,141.9208,18.0,0.0,0.02,0.05,150.0,0.07,0.24,242.86,0.1,0.22,120.0,
ASN00027054,COCONUT_ISLAND,N,-10.0511,143.0686,3.5,0.0,0.0,0.0,0.0,0.03,0.03,0.0,0.68,0.82,20.59,
ASN00027058,HORN_ISLAND,N,-10.5844,142.29,4.0,0.0,0.01,0.03,200.0,0.03,0.14,366.67,0.05,0.41,720.0,
ASN00027073,COEN_AIRPORT,N,-13.7606,143.1183,159.3,0.0,0.0,0.0,0.0,0.0,0.01,0.0,0.04,0.12,200.0,
ASN00027075,SCHERGER_RAAF,N,-12.6167,142.0869,39.3,0.0,0.02,0.05,150.0,0.01,0.06,500.0,0.01,0.09,800.0,
ASN00028004,PALMERVILLE,N,-16.0008,144.0758,203.8,0.0,0.0,0.0,0.0,0.0,0.0,0.0,0.03,0.03,0.0,
ASN00028007,MUSGRAVE,N,-14.7803,143.5036,79.4,0.0,0.0,0.0,0.0,0.0,0.0,0.0,0.04,0.09,125.0,
ASN00028008,LOCKHART_RIVER_AIRPORT,N,-12.785,143.3047,18.5,0.0,0.0,0.01,0.0,0.04,0.13,225.0,0.14,0.25,78.57,
ASN00029004,BURKETOWN_POST_OFFICE,N,-17.7425,139.5475,5.5,0.0,0.0,0.0,0.0,0.02,0.1,400.0,0.27,2.1,677.78,
ASN00029008,CLONCURRY_MCILLWRAITH_ST,N,-20.7089,140.5192,200.0,10.0,0.02,0.06,200.0,0.36,1.15,219.44,3.58,9.97,178.49,
ASN00029009,CLONCURRY_AERO,N,-20.6717,140.5083,189.0,10.0,0.02,0.06,200.0,0.34,1.09,220.59,0.2,1.32,560.0,
ASN00029012,CROYDON_TOWNSHIP,N,-18.2044,142.2447,115.5,0.0,0.0,0.01,0.0,0.02,0.13,550.0,0.43,3.06,611.63,
ASN00029025,JULIA_CREEK_POST_OFFICE,N,-20.6569,141.7458,122.6,0.0,0.01,0.01,0.0,0.12,0.27,125.0,2.65,5.81,119.25,
ASN00029028,KARUMBA_AIRPORT,N,-17.4561,140.8319,4.9,0.0,0.0,0.01,0.0,0.03,0.3,900.0,0.04,1.9,4650.0,
ASN00029038,KOWANYAMA_AIRPORT,N,-15.4818,141.7483,9.6,0.0,0.0,0.01,0.0,0.03,0.14,366.67,0.51,2.65,419.61,
ASN00029039,MORNINGTON_ISLAND,N,-16.664,139.1837,8.5,0.0,0.0,0.01,0.0,0.02,0.16,700.0,0.27,3.21,1088.89,
ASN00029041,NORMANTON_POST_OFFICE,N,-17.6706,141.0672,8.4,0.0,0.0,0.02,0.0,0.04,0.36,800.0,0.31,3.67,1083.87,
ASN00029058,JULIA_CREEK_AIRPORT,N,-20.6672,141.7214,122.5,0.0,0.01,0.01,0.0,0.12,0.27,125.0,0.14,0.52,271.43,
ASN00029063,NORMANTON_AIRPORT,N,-17.6872,141.0733,18.4,0.0,0.0,0.02,0.0,0.04,0.37,825.0,0.25,2.34,836.0,
ASN00029077,BURKETOWN_AIRPORT,N,-17.7483,139.5356,5.7,0.0,0.0,0.0,0.0,0.02,0.1,400.0,0.07,0.46,557.14,
ASN00029090,TOORAK_RESEARCH_STATION,N,-21.0344,141.8008,144.0,0.0,0.0,0.0,0.0,0.0,0.01,0.0,0.05,0.12,140.0,
ASN00029125,MOUNT_ISA_POST_OFFICE,N,-20.7333,139.4833,356.0,20.0,0.13,0.21,61.54,3.11,4.86,56.27,9.85,13.89,41.02,
ASN00029126,MOUNT_ISA_MINE,N,-20.7361,139.4817,381.0,18.0,0.13,0.21,61.54,3.14,4.88,55.41,7.98,12.0,50.38,
ASN00029127,MOUNT_ISA_AERO,N,-20.6778,139.4875,340.3,12.0,0.13,0.21,61.54,1.48,2.4,62.16,0.6,1.7,183.33,
ASN00029139,SWEERS_ISLAND,N,-17.1142,139.5981,4.0,0.0,0.0,0.0,0.0,0.01,0.01,0.0,0.06,0.07,16.67,
ASN00029141,CLONCURRY_AIRPORT,N,-20.6664,140.505,186.0,10.0,0.02,0.06,200.0,0.32,1.0,212.5,0.09,0.88,877.78,
ASN00029167,CENTURY_MINE,N,-18.7569,138.7056,126.8,0.0,0.0,0.0,0.0,0.0,0.01,0.0,0.0,0.04,0.0,
ASN00030018,GEORGETOWN_POST_OFFICE,N,-18.2922,143.5483,291.7,0.0,0.0,0.01,0.0,0.05,0.16,220.0,1.06,3.53,233.02,
ASN00030022,HUGHENDEN_AIRPORT,N,-20.8192,144.2333,316.4,0.0,0.01,0.03,200.0,0.1,0.62,520.0,0.03,0.03,0.0,
ASN00030024,HUGHENDEN_POST_OFFICE,N,-20.8447,144.1986,324.0,0.0,0.01,0.03,200.0,0.11,0.65,490.91,1.65,11.17,576.97,
ASN00030036,MOUNT_SURPRISE_TOWNSHIP,N,-18.1472,144.3183,462.0,0.0,0.0,0.0,0.0,0.02,0.07,250.0,0.34,1.56,358.82,
ASN00030045,RICHMOND_POST_OFFICE,N,-20.7289,143.1425,211.1,0.0,0.0,0.02,0.0,0.04,0.35,775.0,0.6,6.53,988.33,
ASN00030124,GEORGETOWN_AIRPORT,N,-18.3039,143.5306,301.8,0.0,0.0,0.01,0.0,0.05,0.16,220.0,0.07,0.09,28.57,
ASN00030161,RICHMOND_AIRPORT,N,-20.7017,143.1167,206.3,0.0,0.0,0.02,0.0,0.04,0.35,775.0,0.09,0.21,133.33,
ASN00031010,CAIRNS_POST_OFFICE,N,-16.9333,145.7833,2.0,32.0,0.65,1.37,110.77,6.87,8.67,26.2,7.94,9.67,21.79,
ASN00031011,CAIRNS_AERO,N,-16.8736,145.7458,2.2,14.0,0.64,1.34,109.38,3.96,6.21,56.82,3.57,6.21,73.95,
ASN00031016,COOKTOWN_POST_OFFICE,N,-15.4633,145.25,6.0,0.0,0.02,0.04,100.0,0.28,0.55,96.43,2.26,3.79,67.7,
ASN00031017,COOKTOWN_MISSION_STRIP,N,-15.4486,145.1861,14.0,0.0,0.02,0.04,100.0,0.09,0.15,66.67,0.28,0.49,75.0,
ASN00031029,HERBERTON_WHITE_ST,N,-17.5851,145.3869,918.0,0.0,0.05,0.17,240.0,0.01,0.01,0.0,0.0,0.0,0.0,
ASN00031034,KAIRI_RESEARCH_STATION,N,-17.215,145.5656,697.0,0.0,0.3,0.82,173.33,0.22,0.68,209.09,0.17,0.55,223.53,
ASN00031037,LOW_ISLES_LIGHTHOUSE,N,-16.3842,145.5592,2.9,0.0,0.07,0.18,157.14,0.0,0.0,0.0,0.01,0.07,600.0,
ASN00031052,PORT_DOUGLASWARNER_ST,N,-16.484,145.4643,14.0,8.0,0.07,0.18,157.14,0.46,1.17,154.35,2.48,6.54,163.71,
ASN00031066,MAREEBA_QWRC,N,-16.995,145.4253,400.0,12.0,0.13,0.39,200.0,1.58,3.39,114.56,15.93,20.38,27.93,
ASN00031083,KOOMBOOLOOMBA_DAM,N,-17.84,145.5956,760.0,0.0,0.01,0.06,500.0,0.0,0.0,0.0,0.01,0.07,600.0,
ASN00031084,FITZROY_ISLAND_LIGHTHOUSE,N,-16.9267,146.0033,124.0,0.0,0.09,0.16,77.78,0.0,0.01,0.0,0.04,0.06,50.0,
ASN00031108,WALKAMIN_RESEARCH_STATION,N,-17.1347,145.4281,594.0,0.0,0.22,0.55,150.0,0.13,0.49,276.92,0.54,2.62,385.19,
ASN00031192,GREEN_ISLAND,N,-16.7614,145.9719,3.0,0.0,0.34,0.45,32.35,0.0,0.0,0.0,0.02,0.05,150.0,
ASN00031209,COOKTOWN_AIRPORT,N,-15.4461,145.1861,4.8,0.0,0.02,0.04,100.0,0.09,0.15,66.67,0.18,0.38,111.11,
ASN00031210,MAREEBA_AIRPORT,N,-17.0672,145.4283,471.9,0.0,0.2,0.51,155.0,0.15,0.77,413.33,0.25,1.59,536.0,
ASN00031213,CAPE_FLATTERY,N,-14.9672,145.3106,18.5,10.0,0.0,0.0,0.0,0.01,0.05,400.0,0.05,0.73,1360.0,
ASN00032004,CARDWELL_MARINE_PDE,N,-18.2553,146.0197,4.5,0.0,0.03,0.09,200.0,0.3,0.85,183.33,4.0,7.85,96.25,
ASN00032005,CAPE_CLEVELAND_LIGHTHOUSE,N,-19.1833,147.0167,58.0,0.0,0.4,0.66,65.0,0.0,0.01,0.0,0.0,0.09,0.0,
ASN00032025,INNISFAIL,N,-17.5249,146.0345,10.0,9.0,0.12,0.3,150.0,1.38,2.87,107.97,15.44,21.82,41.32,
ASN00032037,SOUTH_JOHNSTONE_EXP_STN,N,-17.6053,145.9972,18.3,0.0,0.13,0.31,138.46,0.46,1.04,126.09,1.73,3.23,86.71,
ASN00032040,TOWNSVILLE_AERO,N,-19.2483,146.7661,4.3,25.0,1.01,1.98,96.04,9.91,13.69,38.14,2.2,5.04,129.09,
ASN00032061,BOTTOM_OF_PIN_GIN_HILL,N,-17.5333,145.9667,40.0,0.0,0.12,0.3,150.0,0.4,1.08,170.0,0.26,1.35,419.23,
ASN00032078,INGHAM_COMPOSITE,N,-18.6494,146.1769,11.8,11.0,0.11,0.24,118.18,1.2,2.23,85.83,5.48,9.3,69.71,
ASN00032141,LUCINDA_POINT,N,-18.5203,146.3861,10.0,0.0,0.08,0.18,125.0,0.0,0.01,0.0,0.0,0.0,0.0,
ASN00033001,BURDEKIN_SHIRE_COUNCIL,N,-19.5775,147.4075,10.7,13.0,0.17,0.35,105.88,2.08,3.4,63.46,22.93,25.85,12.73,
ASN00033002,AYR_DPI_RESEARCH_STN,N,-19.6169,147.3758,10.0,0.0,0.16,0.34,112.5,1.56,2.47,58.33,0.12,1.68,1300.0,
ASN00033007,BOWEN_POST_OFFICE,N,-20.0167,148.25,6.0,11.0,0.11,0.23,109.09,2.11,3.43,62.56,11.43,12.82,12.16,
ASN00033013,COLLINSVILLE_POST_OFFICE,N,-20.5534,147.8464,196.0,12.0,0.02,0.05,150.0,0.48,0.97,102.08,7.45,14.27,91.54,
ASN00033045,MACKAY_AERO,N,-21.1706,149.1794,4.7,17.0,0.43,1.12,160.47,4.6,8.21,78.48,5.3,11.08,109.06,
ASN00033046,MACKAY_POST_OFFICE,N,-21.15,149.1833,11.0,30.0,0.43,1.1,155.81,6.28,11.46,82.48,32.69,35.23,7.77,
ASN00033047,TE_KOWAI_EXP_STN,N,-21.1642,149.1192,13.0,9.0,0.44,1.15,161.36,1.76,5.14,192.05,0.14,1.26,800.0,
ASN00033058,PINE_ISLET_LIGHTHOUSE,N,-21.6667,150.2167,58.0,0.0,0.0,0.0,0.0,0.0,0.0,0.0,0.0,0.0,0.0,
ASN00033065,ST_LAWRENCE_POST_OFFICE,N,-22.3458,149.5356,17.8,0.0,0.0,0.01,0.0,0.04,0.13,225.0,0.25,1.61,544.0,
ASN00033077,PACIFIC_HEIGHTS,N,-23.0967,150.7342,75.0,9.0,0.1,0.42,320.0,0.78,2.61,234.62,0.38,4.88,1184.21,
ASN00033090,MILLAROO_DPI,N,-20.0464,147.2739,45.4,0.0,0.01,0.02,100.0,0.02,0.09,350.0,0.09,0.13,44.44,
ASN00033106,HAMILTON_ISLAND_AIRPORT,N,-20.3658,148.9536,58.7,0.0,0.01,0.05,400.0,0.05,0.27,440.0,0.12,0.52,333.33,
ASN00033119,MACKAY_MO,N,-21.1172,149.2169,30.3,17.0,0.41,1.02,148.78,4.85,7.71,58.97,4.86,8.07,66.05,
ASN00033195,WILLIAMSON,N,-22.4703,150.1786,27.6,0.0,0.0,0.0,0.0,0.0,0.0,0.0,0.02,0.09,350.0,
ASN00033210,ST_LAWRENCE,N,-22.3472,149.5242,9.2,0.0,0.0,0.01,0.0,0.04,0.14,250.0,0.48,1.54,220.83,
ASN00033247,PROSERPINE_AIRPORT,N,-20.4925,148.555,19.7,0.0,0.08,0.25,212.5,0.02,0.04,100.0,0.15,0.49,226.67,
ASN00033255,HAMILTON_ISLAND_AIRPORT,N,-20.3531,148.9508,22.6,0.0,0.01,0.06,500.0,0.05,0.27,440.0,0.7,3.55,407.14,
ASN00033257,BOWEN_AIRPORT,N,-20.0151,148.2152,5.0,0.0,0.11,0.22,100.0,2.17,3.77,73.73,1.11,4.44,300.0,
ASN00033294,YEPPOON_THE_ESPLANADE,N,-23.1364,150.7506,5.5,8.0,0.23,0.62,169.57,1.02,4.13,304.9,7.59,11.26,48.35,
ASN00033295,ALVA_BEACH,N,-19.4569,147.4833,7.5,0.0,0.21,0.4,90.48,0.06,0.14,133.33,1.22,1.82,49.18,
ASN00033307,WOOLSHED,N,-19.4167,146.5364,556.0,0.0,0.53,1.21,128.3,0.0,0.01,0.0,0.06,0.08,33.33,
ASN00033308,SAMUEL_HILL_AERO,N,-22.7433,150.6578,31.0,0.0,0.0,0.01,0.0,0.0,0.02,0.0,0.01,0.36,3500.0,
ASN00034002,CHARTERS_TOWERS_POST_OFFICE,N,-20.0781,146.2614,309.8,10.0,0.09,0.22,144.44,1.61,4.21,161.49,19.48,26.2,34.5,
ASN00034038,MORANBAH_WATER_TREATMENT_PLANT,N,-21.9947,148.0308,260.0,10.0,0.06,0.12,100.0,1.37,2.51,83.21,6.35,10.98,72.91,
ASN00034084,CHARTERS_TOWERS_AIRPORT,N,-20.0464,146.2708,289.8,10.0,0.09,0.22,144.44,1.52,3.54,132.89,0.28,3.03,982.14,
ASN00035019,CLERMONT_SIRIUS_ST,N,-22.8239,147.6425,260.0,7.0,0.03,0.08,166.67,0.46,1.31,184.78,6.35,15.61,145.83,
ASN00035027,EMERALD_POST_OFFICE,N,-23.5267,148.1617,178.9,12.0,0.07,0.24,242.86,1.54,4.72,206.49,15.47,21.42,38.46,
ASN00035059,ROLLESTON,N,-24.4619,148.6261,214.0,0.0,0.0,0.02,0.0,0.03,0.13,333.33,0.38,2.33,513.16,
ASN00035065,SPRINGSURE_COMET_ST,N,-24.123,148.0856,344.5,0.0,0.01,0.04,300.0,0.18,0.63,250.0,2.87,8.92,210.8,
ASN00035069,TAMBO_POST_OFFICE,N,-24.8819,146.2564,395.1,0.0,0.0,0.01,0.0,0.07,0.21,200.0,1.4,4.25,203.57,
ASN00035070,TAROOM_POST_OFFICE,N,-25.6408,149.7958,199.0,0.0,0.01,0.04,300.0,0.14,0.57,307.14,2.13,10.74,404.23,
ASN00035149,BRIGALOW_RESEARCH_STN,N,-24.8353,149.8003,168.0,0.0,0.01,0.02,100.0,0.02,0.03,50.0,0.13,0.16,23.08,
ASN00035264,EMERALD_AIRPORT,N,-23.5694,148.1756,189.4,0.0,0.07,0.24,242.86,0.55,2.68,387.27,0.16,1.82,1037.5,
ASN00036007,BARCALDINE_POST_OFFICE,N,-23.5544,145.2883,266.9,8.0,0.03,0.04,33.33,0.56,0.85,51.79,12.94,16.63,28.52,
ASN00036026,ISISFORD_POST_OFFICE,N,-24.2591,144.4406,203.0,0.0,0.0,0.0,0.0,0.01,0.05,400.0,0.14,1.08,671.43,
ASN00036030,LONGREACH_POST_OFFICE,N,-23.45,144.25,191.0,8.0,0.03,0.06,100.0,0.55,1.29,134.55,6.92,12.03,73.84,
ASN00036031,LONGREACH_AERO,N,-23.4372,144.2769,192.2,8.0,0.03,0.07,133.33,0.56,1.3,132.14,0.43,2.94,583.72,
ASN00036034,BLACKALL_AIRPORT,N,-24.4303,145.4306,281.3,0.0,0.02,0.03,50.0,0.32,0.68,112.5,0.09,0.21,133.33,
ASN00036047,TWIN_HILLS_POST_OFFICE,N,-21.95,146.9517,195.0,0.0,0.0,0.0,0.0,0.01,0.01,0.0,0.07,0.13,85.71,
ASN00036143,BLACKALL_TOWNSHIP,N,-24.4214,145.4672,284.0,0.0,0.02,0.03,50.0,0.31,0.7,125.81,6.0,12.32,105.33,
ASN00036167,LONGREACH_COMPARISON,N,-23.4372,144.2769,192.2,8.0,0.03,0.07,133.33,0.56,1.3,132.14,0.43,2.94,583.72,
ASN00037010,CAMOOWEAL_TOWNSHIP,N,-19.9225,138.1214,231.2,0.0,0.0,0.0,0.0,0.01,0.09,800.0,0.18,1.99,1005.56,
ASN00037034,THE_MONUMENT_AIRPORT,N,-21.8125,139.9267,288.4,0.0,0.0,0.01,0.0,0.0,0.01,0.0,0.03,0.04,33.33,
ASN00037036,TREPELL_AIRPORT,N,-21.84,140.8925,266.2,0.0,0.0,0.0,0.0,0.01,0.08,700.0,0.01,0.05,400.0,
ASN00037039,WINTON_AIRPORT,N,-22.3617,143.0836,192.2,0.0,0.01,0.02,100.0,0.23,0.51,121.74,0.05,0.05,0.0,
ASN00037043,URANDANGI,N,-21.6119,138.3136,174.0,0.0,0.0,0.0,0.0,0.0,0.02,0.0,0.03,0.39,1200.0,
ASN00037051,WINTON_POST_OFFICE,N,-22.3908,143.0386,181.9,8.0,0.01,0.02,100.0,0.27,0.58,114.81,5.86,9.96,69.97,
ASN00038000,BEDOURIE_POLICE_STATION,N,-24.3597,139.4714,91.4,0.0,0.0,0.0,0.0,0.01,0.04,300.0,0.19,0.75,294.74,
ASN00038002,BIRDSVILLE_POLICE_STATION,N,-25.9003,139.3486,46.5,0.0,0.0,0.0,0.0,0.01,0.04,300.0,0.16,0.91,468.75,
ASN00038003,BOULIA_AIRPORT,N,-22.9117,139.9039,161.8,0.0,0.0,0.01,0.0,0.02,0.12,500.0,0.3,2.38,693.33,
ASN00038024,WINDORAH_POST_OFFICE,N,-25.4228,142.6564,126.3,0.0,0.0,0.0,0.0,0.01,0.05,400.0,0.25,1.05,320.0,
ASN00038026,BIRDSVILLE_AIRPORT,N,-25.8975,139.3472,46.6,0.0,0.0,0.0,0.0,0.01,0.04,300.0,0.16,0.91,468.75,
ASN00039004,BARALABA_POST_OFFICE,N,-24.1819,149.8117,100.0,0.0,0.01,0.03,200.0,0.07,0.29,314.29,0.87,5.42,522.99,
ASN00039006,BILOELA_DPI,N,-24.3789,150.5164,175.0,8.0,0.06,0.18,200.0,0.75,2.56,241.33,0.87,3.38,288.51,
ASN00039014,BULBURIN_FORESTRY,N,-24.5333,151.4667,602.0,0.0,0.01,0.04,300.0,0.0,0.0,0.0,0.0,0.0,0.0,
ASN00039015,BUNDABERG_POST_OFFICE,N,-24.8667,152.3467,14.0,24.0,0.37,1.01,172.97,7.16,12.56,75.42,21.28,25.09,17.9,
ASN00039018,BUSTARD_HEAD_LIGHTHOUSE,N,-24.0222,151.7642,89.0,0.0,0.01,0.08,700.0,0.0,0.01,0.0,0.02,0.04,100.0,
ASN00039023,CAPE_CAPRICORN_LIGHTHOUSE,N,-23.4833,151.2333,76.0,0.0,0.0,0.0,0.0,0.0,0.0,0.0,0.01,0.02,100.0,
ASN00039025,CHILDERS_POST_OFFICE,N,-25.2361,152.2781,109.0,0.0,0.03,0.13,333.33,0.29,0.99,241.38,4.71,8.21,74.31,
ASN00039039,GAYNDAH_POST_OFFICE,N,-25.6258,151.6094,105.7,9.0,0.03,0.1,233.33,0.28,1.37,389.29,3.91,19.43,396.93,
ASN00039057,KALPOWAR_FORESTRY,N,-24.6925,151.3047,355.0,0.0,0.02,0.06,200.0,0.01,0.04,300.0,0.01,0.55,5400.0,
ASN00039059,LADY_ELLIOT_ISLAND,N,-24.1116,152.7161,3.9,0.0,0.0,0.0,0.0,0.0,0.04,0.0,0.03,0.88,2833.33,
ASN00039066,GAYNDAH_AIRPORT,N,-25.6167,151.6156,110.9,7.0,0.03,0.1,233.33,0.28,1.39,396.43,2.17,8.58,295.39,
ASN00039069,WALTERHALL,N,-23.6286,150.3867,248.0,0.0,0.05,0.23,360.0,0.25,0.7,180.0,1.03,3.05,196.12,
ASN00039083,ROCKHAMPTON_AERO,N,-23.3753,150.4775,10.4,15.0,0.42,0.93,121.43,6.05,8.09,33.72,3.09,7.38,138.83,
ASN00039085,SANDY_CAPE_LIGHTHOUSE,N,-24.7298,153.2089,109.0,0.0,0.0,0.01,0.0,0.01,0.02,100.0,0.03,0.04,33.33,
ASN00039089,THANGOOL_AIRPORT,N,-24.4935,150.5709,193.1,0.0,0.05,0.17,240.0,0.14,0.38,171.43,1.23,2.93,138.21,
ASN00039104,MONTO_TOWNSHIP,N,-24.8642,151.1247,239.0,0.0,0.03,0.08,166.67,0.23,0.85,269.57,2.87,11.55,302.44,
ASN00039122,HERON_ISLAND_RES_STN,N,-23.4422,151.9131,3.3,0.0,0.0,0.0,0.0,0.0,0.01,0.0,0.02,0.3,1400.0,
ASN00039123,GLADSTONE_RADAR,N,-23.8553,151.2628,74.5,26.0,0.24,0.65,170.83,4.17,7.87,88.73,15.51,19.77,27.47,
ASN00039128,BUNDABERG_AERO,N,-24.8885,152.3235,27.0,18.0,0.37,1.03,178.38,6.19,10.81,74.64,13.18,22.4,69.95,
ASN00039130,NORTH_REEF_LIGHTHOUSE,N,-23.1833,151.9,1.0,0.0,0.0,0.0,0.0,0.0,0.0,0.0,0.0,0.0,0.0,
ASN00039171,NARAYEN_RES_STN,N,-25.6875,150.8689,260.0,0.0,0.0,0.01,0.0,0.01,0.01,0.0,0.16,0.29,81.25,
ASN00039314,SEVENTEEN_SEVENTY,N,-24.1542,151.8875,34.2,0.0,0.01,0.09,800.0,0.0,0.15,0.0,0.02,1.08,5300.0,
ASN00039322,RUNDLE_ISLAND,N,-23.5293,151.2763,19.8,0.0,0.0,0.0,0.0,0.0,0.0,0.0,0.0,0.0,0.0,
ASN00039326,GLADSTONE_AIRPORT,N,-23.8697,151.2214,16.6,16.0,0.24,0.65,170.83,3.59,7.46,107.8,9.46,17.84,88.58,
ASN00040004,AMBERLEY_AMO,N,-27.6297,152.7111,24.2,10.0,1.01,3.25,221.78,3.58,8.44,135.75,3.32,6.38,92.17,
ASN00040040,CALOUNDRA_SIGNAL_STATION,N,-26.8017,153.15,46.0,15.0,0.56,1.98,253.57,3.65,7.24,98.36,7.54,9.39,24.54,
ASN00040043,CAPE_MORETON_LIGHTHOUSE,N,-27.0314,153.4661,99.9,0.0,0.0,0.01,0.0,0.0,0.08,0.0,0.01,0.4,3900.0,
ASN00040062,CROHAMHURST,N,-26.8094,152.87,200.0,0.0,0.41,2.09,409.76,0.1,1.24,1140.0,0.13,0.5,284.62,
ASN00040068,DOUBLE_ISLAND_POINT_LIGHTHOUSE,N,-25.9319,153.1906,95.6,0.0,0.03,0.1,233.33,0.0,0.0,0.0,0.03,0.08,166.67,
ASN00040082,UNIVERSITY_OF_QUEENSLAND_GATTO,N,-27.5436,152.3375,97.0,9.0,0.14,0.92,557.14,0.19,1.79,842.11,0.58,3.19,450.0,
ASN00040093,GYMPIE,N,-26.1831,152.6414,64.5,10.0,0.18,0.75,316.67,2.08,6.94,233.65,1.61,4.29,166.46,
ASN00040101,IPSWICH,N,-27.6117,152.7608,39.9,26.0,1.92,4.66,142.71,7.63,14.04,84.01,19.04,24.26,27.42,
ASN00040112,KINGAROY_PRINCE_STREET,N,-26.5544,151.8456,441.9,9.0,0.12,0.43,258.33,1.33,3.74,181.2,4.43,12.33,178.33,
ASN00040121,MALENY_TAMARIND_ST,N,-26.7528,152.8519,425.0,0.0,0.35,1.87,434.29,0.15,1.76,1073.33,1.49,9.17,515.44,
ASN00040126,MARYBOROUGH,N,-25.5161,152.7156,10.3,13.0,0.26,0.81,211.54,3.94,5.81,47.46,5.96,8.65,45.13,
ASN00040158,NANANGO_WILLS_ST,N,-26.6756,151.9939,375.0,0.0,0.12,0.44,266.67,0.39,2.06,428.21,4.11,13.66,232.36,
ASN00040189,SOMERSET_DAM,N,-27.1147,152.555,113.0,0.0,0.07,0.34,385.71,0.03,0.09,200.0,0.33,1.48,348.48,
ASN00040190,SOUTHPORT_RIDGEWAY_AVE,N,-27.9832,153.4054,17.0,44.0,1.46,3.92,168.49,11.29,17.24,52.7,23.27,28.91,24.24,
ASN00040197,MT_TAMBORINE_FERN_ST,N,-27.9695,153.1952,515.0,0.0,1.25,4.27,241.6,0.06,1.51,2416.67,0.1,4.61,4510.0,
ASN00040209,POINT_LOOKOUT,N,-27.4361,153.5456,41.0,0.0,0.05,0.23,360.0,0.1,0.34,240.0,1.06,2.56,141.51,
ASN00040211,ARCHERFIELD_AIRPORT,N,-27.5717,153.0078,12.5,37.0,5.4,10.68,97.78,15.09,22.63,49.97,12.9,18.75,45.35,
ASN00040214,BRISBANE_REGIONAL_OFFICE,N,-27.4778,153.0306,38.0,81.0,5.62,10.81,92.35,25.01,28.66,14.59,21.73,24.7,13.67,
ASN00040223,BRISBANE_AERO,N,-27.4178,153.1142,4.0,33.0,5.39,9.92,84.04,10.49,17.71,68.83,3.98,7.03,76.63,
ASN00040241,SAMFORD_CSIRO,N,-27.3617,152.8861,52.7,7.0,4.3,7.88,83.26,0.54,4.65,761.11,0.57,6.71,1077.19,
ASN00040242,SANDGATE_POST_OFFICE,N,-27.3233,153.07,1.0,22.0,4.24,7.94,87.26,6.57,10.7,62.86,18.6,21.89,17.69,
ASN00040264,TEWANTIN_POST_OFFICE,N,-26.3919,153.0408,8.3,11.0,0.25,1.1,340.0,1.58,5.79,266.46,7.01,11.53,64.48,
ASN00040282,NAMBOUR_DPI,N,-26.6431,152.9392,32.5,8.0,0.67,2.56,282.09,1.48,5.75,288.51,2.23,9.79,339.01,
ASN00040284,BEERBURRUM_FOREST_STATION,N,-26.9586,152.9619,48.0,0.0,0.51,2.38,366.67,0.09,0.79,777.78,0.71,4.24,497.18,
ASN00040288,COOLANGATTA_AERO,N,-28.1661,153.5036,5.0,14.0,1.36,3.08,126.47,5.35,8.77,63.93,3.32,5.52,66.27,
ASN00040308,MT_GLORIOUS_FAHEY_RD,N,-27.3342,152.7717,618.0,0.0,1.72,4.3,150.0,0.01,0.3,2900.0,0.05,0.78,1460.0,
ASN00040405,HERVEY_BAY_AIRPORT,N,-25.322,152.8817,13.0,0.0,0.34,0.9,164.71,3.14,8.1,157.96,0.21,3.82,1719.05,
ASN00040428,BRIAN_PASTURES,N,-25.655,151.745,131.0,0.0,0.03,0.09,200.0,0.02,0.05,150.0,0.14,0.36,157.14,
ASN00040436,GATTON_QDPI_RESEARCH_STN,N,-27.5456,152.3289,98.0,9.0,0.13,0.9,592.31,0.58,2.54,337.93,1.08,3.74,246.3,
ASN00040454,GLENLOGAN_FIELD_STATION,N,-27.8333,153.0,20.0,0.0,1.13,4.14,266.37,0.14,4.69,3250.0,0.02,6.4,31900.0,
ASN00040555,TOOLARA_KELLY,N,-25.9714,152.8608,80.0,0.0,0.12,0.42,250.0,0.01,0.05,400.0,0.0,0.0,0.0,
ASN00040651,JIMNA_FORESTRY,N,-26.6644,152.4606,523.0,0.0,0.01,0.06,500.0,0.0,0.04,0.0,0.04,0.84,2000.0,
ASN00040697,REDCLIFFE_COUNCIL,N,-27.245,153.1006,25.0,25.0,2.92,6.08,108.22,6.13,7.99,30.34,31.85,33.76,6.0,
ASN00040717,COOLANGATTA,N,-28.1681,153.5053,4.0,18.0,1.35,3.06,126.67,5.22,8.81,68.77,3.44,5.39,56.69,
ASN00040764,GOLD_COAST_SEAWAY,N,-27.939,153.4283,3.0,23.0,1.44,3.95,174.31,6.78,9.34,37.76,0.01,0.85,8400.0,
ASN00040842,BRISBANE_AERO,N,-27.3917,153.1292,4.5,34.0,5.17,9.31,80.08,4.88,10.33,111.68,2.23,10.02,349.33,
ASN00040854,LOGAN_CITY_WATER_TREATMENT,N,-27.6839,153.1947,14.0,20.0,3.36,8.0,138.1,5.27,13.06,147.82,7.33,15.52,111.73,
ASN00040856,RAINBOW_BEACH,N,-25.9007,153.0891,14.4,0.0,0.03,0.12,300.0,0.25,0.55,120.0,4.48,8.34,86.16,
ASN00040861,MAROOCHYDORE_AERO,N,-26.6006,153.0903,3.3,11.0,0.72,2.6,261.11,0.9,3.06,240.0,2.01,7.14,255.22,
ASN00040908,TEWANTIN_RSL_PARK,N,-26.3911,153.0403,6.4,12.0,0.24,1.1,358.33,1.55,5.76,271.61,7.59,12.2,60.74,
ASN00040913,BRISBANE,N,-27.4808,153.0389,8.1,70.0,5.59,10.78,92.84,24.22,27.97,15.48,25.05,27.29,8.94,
ASN00040922,KINGAROY_AIRPORT,N,-26.5737,151.8398,433.7,9.0,0.12,0.43,258.33,1.3,3.37,159.23,0.33,1.91,478.79,
ASN00040958,REDCLIFFE,N,-27.2169,153.0922,12.6,23.0,2.36,5.37,127.54,6.39,8.7,36.15,16.37,24.22,47.95,
ASN00041011,CAMBOOYA_POST_OFFICE,N,-27.7072,151.865,458.0,0.0,0.52,1.5,188.46,0.14,0.76,442.86,1.89,9.48,401.59,
ASN00041023,DALBY_POST_OFFICE,N,-27.1839,151.2639,343.8,14.0,0.1,0.37,270.0,1.95,5.79,196.92,20.94,33.87,61.75,
ASN00041038,GOONDIWINDI_POST_OFFICE,N,-28.5481,150.3075,217.2,11.0,0.05,0.16,220.0,0.82,2.79,240.24,13.04,21.59,65.57,
ASN00041044,HERMITAGE,N,-28.2061,152.1003,475.4,0.0,0.16,0.47,193.75,0.17,0.8,370.59,0.26,0.93,257.69,
ASN00041056,KILLARNEY_POST_OFFICE,N,-28.3344,152.2953,507.0,0.0,0.06,0.19,216.67,0.21,0.67,219.05,2.05,6.86,234.63,
ASN00041082,PITTSWORTH,N,-27.7156,151.6333,608.0,7.0,0.08,0.42,425.0,0.66,1.61,143.94,12.55,23.56,87.73,
ASN00041095,STANTHORPE_LESLIE_PARADE,N,-28.6617,151.9339,787.0,13.0,0.1,0.33,230.0,1.02,2.93,187.25,14.29,22.97,60.74,
ASN00041100,TEXAS_POST_OFFICE,N,-28.8544,151.1681,297.0,0.0,0.02,0.05,150.0,0.24,0.45,87.5,4.83,7.25,50.1,
ASN00041103,TOOWOOMBA,N,-27.5836,151.9317,691.0,22.0,0.54,1.73,220.37,9.57,19.18,100.42,25.01,34.89,39.5,
ASN00041116,WALLANGARRA_POST_OFFICE,N,-28.9231,151.9306,875.0,0.0,0.07,0.19,171.43,0.1,0.52,420.0,1.43,7.4,417.48,
ASN00041175,APPLETHORPE,N,-28.6217,151.9533,871.6,0.0,0.1,0.33,230.0,1.02,2.97,191.18,0.44,4.14,840.91,
ASN00041176,WARWICK_DRAGON_ST,N,-28.2247,152.0258,477.1,16.0,0.16,0.45,181.25,1.91,5.5,187.96,16.35,24.09,47.34,
ASN00041341,INGLEWOOD_TOBACCO_RES,N,-28.5,150.9333,265.0,0.0,0.02,0.06,200.0,0.03,0.05,66.67,0.06,0.09,50.0,
ASN00041359,OAKEY_AERO,N,-27.4034,151.7413,405.7,0.0,0.52,1.51,190.38,0.59,1.46,147.46,0.02,0.1,400.0,
ASN00041521,GOONDIWINDI_AIRPORT,N,-28.5211,150.3256,217.6,13.0,0.05,0.16,220.0,0.81,2.58,218.52,0.21,1.38,557.14,
ASN00041522,DALBY_AIRPORT,N,-27.1605,151.2634,343.9,14.0,0.1,0.37,270.0,1.93,5.04,161.14,1.66,4.17,151.2,
ASN00041525,WARWICK,N,-28.2061,152.1003,475.4,0.0,0.16,0.47,193.75,0.17,0.8,370.59,0.26,0.93,257.69,
ASN00041529,TOOWOOMBA_AIRPORT,N,-27.5425,151.9134,640.9,24.0,0.54,1.72,218.52,7.47,14.75,97.46,14.34,29.45,105.37,
ASN00042023,MILES_POST_OFFICE,N,-26.6581,150.1844,302.0,7.0,0.02,0.1,400.0,0.15,0.99,560.0,1.68,12.95,670.83,
ASN00042112,MILES_CONSTANCE_STREET,N,-26.6569,150.1819,304.8,7.0,0.02,0.1,400.0,0.14,0.98,600.0,1.51,10.8,615.23,
ASN00043015,INJUNE_POST_OFFICE,N,-25.8428,148.5669,393.0,0.0,0.01,0.02,100.0,0.13,0.26,100.0,2.61,5.05,93.49,
ASN00043020,MITCHELL_POST_OFFICE,N,-26.4888,147.9777,336.5,0.0,0.01,0.03,200.0,0.07,0.59,742.86,1.02,9.47,828.43,
ASN00043030,ROMA_POST_OFFICE,N,-26.5719,148.7897,299.4,12.0,0.03,0.2,566.67,0.34,3.79,1014.71,2.95,33.89,1048.81,
ASN00043034,ST_GEORGE_POST_OFFICE,N,-28.0361,148.5814,200.8,8.0,0.02,0.08,300.0,0.4,1.33,232.5,8.06,17.93,122.46,
